{"version": 0.6, "generator": "Overpass API 0.7.62.1 084b4234", "osm3s": {"timestamp_osm_base": "2024-11-19T06:09:43Z", "copyright": "The data included in this document is from www.openstreetmap.org. The data is made available under ODbL."}, "elements": [{"type": "node", "id": 95962091, "lat": 26.017931, "lon": -80.1949837}, {"type": "node", "id": 95962092, "lat": 26.0178844, "lon": -80.1969861}, {"type": "node", "id": 95972014, "lat": 26.0132013, "lon": -80.1968663}, {"type": "node", "id": 95972015, "lat": 26.0150704, "lon": -80.1969095}, {"type": "node", "id": 96047287, "lat": 26.013242, "lon": -80.1948538}, {"type": "node", "id": 96047911, "lat": 26.0017128, "lon": -80.2218923, "tags": {"barrier": "gate"}}, {"type": "node", "id": 96052016, "lat": 26.0160549, "lon": -80.1949074}, {"type": "node", "id": 96055894, "lat": 26.2809373, "lon": -80.100365, "tags": {"barrier": "gate"}}, {"type": "node", "id": 99016193, "lat": 25.9185176, "lon": -80.2572488}, {"type": "node", "id": 99335830, "lat": 25.916195, "lon": -80.259918}, {"type": "node", "id": 99335832, "lat": 25.916446, "lon": -80.260022}, {"type": "node", "id": 99335834, "lat": 25.916769, "lon": -80.260136}, {"type": "node", "id": 358691118, "lat": 26.0425892, "lon": -80.1528235, "tags": {"amenity": "school", "ele": "2", "gnis:feature_id": "277989", "name": "Attucks High School"}}, {"type": "node", "id": 358691563, "lat": 25.8943561, "lon": -80.2192371}, {"type": "node", "id": 358693451, "lat": 26.0073127, "lon": -80.1411565, "tags": {"amenity": "school", "ele": "2", "gnis:feature_id": "280262", "name": "Central School"}}, {"type": "node", "id": 358693866, "lat": 26.2361931, "lon": -80.1325448, "tags": {"amenity": "school", "ele": "3", "gnis:feature_id": "280646", "name": "Coleman School"}}, {"type": "node", "id": 358694356, "lat": 25.9453708, "lon": -80.238382, "tags": {"amenity": "school", "ele": "2", "gnis:feature_id": "281047", "name": "Crestview School"}}, {"type": "node", "id": 358694756, "lat": 26.1395132, "lon": -80.1755261, "tags": {"amenity": "school", "ele": "2", "gnis:feature_id": "281563", "name": "Dillard High School", "wikidata": "Q5276864"}}, {"type": "node", "id": 358694765, "lat": 26.0009241, "lon": -80.1336563, "tags": {"amenity": "school", "ele": "0", "gnis:feature_id": "281566", "name": "Dimond Memorial School"}}, {"type": "node", "id": 358695161, "lat": 26.1234195, "lon": -80.132545, "tags": {"amenity": "school", "ele": "2", "gnis:feature_id": "282047", "name": "Eastside School"}}, {"type": "node", "id": 358695350, "lat": 25.8873172, "lon": -80.2036589, "tags": {"amenity": "school", "ele": "3", "gnis:feature_id": "282200", "name": "Emeth School"}}, {"type": "node", "id": 358695939, "lat": 26.1927243, "lon": -80.1286139}, {"type": "node", "id": 358696042, "lat": 26.0736994, "lon": -80.232826, "tags": {"amenity": "school", "ele": "1", "gnis:feature_id": "282672", "name": "Forman School"}}, {"type": "node", "id": 358697589, "lat": 25.8992398, "lon": -80.1854687, "tags": {"amenity": "school", "ele": "2", "gnis:feature_id": "284203", "name": "Holy Cross School"}}, {"type": "node", "id": 358697592, "lat": 25.9098163, "lon": -80.1764357, "tags": {"amenity": "school", "ele": "1", "gnis:feature_id": "284204", "name": "Holy Family School"}}, {"type": "node", "id": 358697826, "lat": 25.8634295, "lon": -80.2856059, "tags": {"amenity": "school", "ele": "1", "gnis:feature_id": "284470", "name": "Immaculate Conception School"}}, {"type": "node", "id": 358698079, "lat": 25.9942577, "lon": -80.1508791, "tags": {"amenity": "school", "ele": "3", "gnis:feature_id": "284715", "name": "James School"}}, {"type": "node", "id": 358698866, "lat": 25.9934244, "lon": -80.1647684, "tags": {"amenity": "school", "ele": "3", "gnis:feature_id": "285342", "name": "South Area Alternative School"}}, {"type": "node", "id": 358699737, "lat": 25.9770362, "lon": -80.1786578, "tags": {"amenity": "school", "ele": "1", "gnis:feature_id": "286279", "name": "Madonna Academy"}}, {"type": "node", "id": 358701395, "lat": 25.9039834, "lon": -80.2406045, "tags": {"amenity": "school", "ele": "2", "gnis:feature_id": "287545", "name": "Nathan Young School"}}, {"type": "node", "id": 358701843, "lat": 26.2770249, "lon": -80.0936545, "tags": {"amenity": "school", "ele": "2", "gnis:feature_id": "287792", "name": "North Broward Day School"}}, {"type": "node", "id": 358703140, "lat": 26.1234195, "lon": -80.1278226, "tags": {"amenity": "school", "ele": "3", "gnis:feature_id": "288830", "name": "Pine Crest Prep School"}}, {"type": "node", "id": 358703312, "lat": 26.1052588, "lon": -80.2034205, "tags": {"amenity": "school", "ele": "4", "gnis:feature_id": "288916", "name": "Pine Ridge School"}}, {"type": "node", "id": 358703665, "lat": 25.9012055, "lon": -80.1778247, "tags": {"amenity": "school", "ele": "3", "gnis:feature_id": "289198", "name": "Popiel School"}}, {"type": "node", "id": 358703805, "lat": 26.242032, "lon": -80.1457787, "tags": {"amenity": "school", "ele": "3", "gnis:feature_id": "289334", "name": "Project School"}}, {"type": "node", "id": 358704490, "lat": 26.0898096, "lon": -80.1492121, "tags": {"amenity": "school", "ele": "1", "gnis:feature_id": "289923", "name": "Rogers Junior High School"}}, {"type": "node", "id": 358704698, "lat": 25.9328711, "lon": -80.1861582, "tags": {"amenity": "school", "ele": "2", "gnis:feature_id": "290099", "name": "Sabal Palm School"}}, {"type": "node", "id": 358704796, "lat": 26.1245306, "lon": -80.1347672, "tags": {"amenity": "school", "ele": "1", "gnis:feature_id": "290151", "name": "Saint Anthony School"}}, {"type": "node", "id": 358704831, "lat": 26.1633924, "lon": -80.1480549, "tags": {"amenity": "school", "ele": "1", "gnis:feature_id": "290166", "name": "Saint Clements School"}}, {"type": "node", "id": 358704834, "lat": 26.2148049, "lon": -80.103655, "tags": {"amenity": "school", "ele": "0", "gnis:feature_id": "290169", "name": "Saint Colemans School"}}, {"type": "node", "id": 358704850, "lat": 26.2725806, "lon": -80.1103218, "tags": {"amenity": "school", "ele": "5", "gnis:feature_id": "290174", "name": "Saint Elizabeths School"}}, {"type": "node", "id": 358704872, "lat": 26.1236975, "lon": -80.2522709, "tags": {"amenity": "school", "ele": "1", "gnis:feature_id": "290183", "name": "Saint Gregory School"}}, {"type": "node", "id": 358704912, "lat": 25.8953725, "lon": -80.2092145, "tags": {"amenity": "school", "ele": "4", "gnis:feature_id": "290199", "name": "Saint James School"}}, {"type": "node", "id": 358704928, "lat": 26.0900874, "lon": -80.1536568, "tags": {"amenity": "school", "ele": "1", "gnis:feature_id": "290204", "name": "Saint Jeromes School"}}, {"type": "node", "id": 358705059, "lat": 25.8712065, "lon": -80.1233784, "tags": {"amenity": "school", "ele": "0", "gnis:feature_id": "290257", "name": "Saint Josephs School"}}, {"type": "node", "id": 358705079, "lat": 25.9512037, "lon": -80.1567126, "tags": {"amenity": "school", "ele": "3", "gnis:feature_id": "290264", "name": "Saint Lawrence School"}}, {"type": "node", "id": 358705166, "lat": 26.0150902, "lon": -80.1647684, "tags": {"amenity": "school", "ele": "1", "gnis:feature_id": "290296", "name": "Saint Marks School"}}, {"type": "node", "id": 358705565, "lat": 26.1078646, "lon": -80.1797687, "tags": {"amenity": "school", "ele": "1", "gnis:feature_id": "290399", "name": "Saint Thomas Aquinas High School", "wikidata": "Q1260111"}}, {"type": "node", "id": 358706132, "lat": 25.8845396, "lon": -80.1961586, "tags": {"amenity": "school", "ele": "3", "gnis:feature_id": "290911", "name": "Shady Oak School"}}, {"type": "node", "id": 358706955, "lat": 26.1125866, "lon": -80.1433786, "tags": {"amenity": "school", "ele": "2", "gnis:feature_id": "291459", "name": "Southside School"}}, {"type": "node", "id": 358707661, "lat": 26.2820152, "lon": -80.125628, "tags": {"amenity": "school", "ele": "4", "gnis:feature_id": "292092", "name": "Tedder School"}}, {"type": "node", "id": 358707750, "lat": 25.9100942, "lon": -80.2089368, "tags": {"amenity": "school", "ele": "3", "gnis:feature_id": "292205", "name": "Thomas Jefferson Junior High School"}}, {"type": "node", "id": 358708535, "lat": 25.9492595, "lon": -80.1983807, "tags": {"amenity": "school", "ele": "3", "gnis:feature_id": "292787", "name": "Visitation School"}}, {"type": "node", "id": 358708969, "lat": 26.1186975, "lon": -80.1586569, "tags": {"amenity": "school", "ele": "1", "gnis:feature_id": "293145", "name": "Westside School"}}, {"type": "node", "id": 358708986, "lat": 25.8909284, "lon": -80.2322709, "tags": {"amenity": "school", "ele": "4", "gnis:feature_id": "293150", "name": "Westview Junior High School"}}, {"type": "node", "id": 358708989, "lat": 25.8903728, "lon": -80.234771, "tags": {"amenity": "school", "ele": "3", "gnis:feature_id": "293151", "name": "Westview School"}}, {"type": "node", "id": 358709000, "lat": 26.1109201, "lon": -80.1822689, "tags": {"amenity": "school", "ele": "2", "gnis:feature_id": "293156", "name": "Westwood Heights Elementary"}}, {"type": "node", "id": 358709611, "lat": 25.8742621, "lon": -80.183936, "tags": {"amenity": "school", "ele": "1", "gnis:feature_id": "293700", "name": "Miami Country Day School", "wikidata": "Q6827301"}}, {"type": "node", "id": 358711328, "lat": 26.1039758, "lon": -80.1372673, "tags": {"amenity": "school", "ele": "2", "gnis:feature_id": "297159", "name": "Downtown Adult Center"}}, {"type": "node", "id": 358711333, "lat": 26.1123088, "lon": -80.1436564, "tags": {"amenity": "school", "ele": "2", "gnis:feature_id": "297160", "name": "Vocational, Technical and Adult Education Off Campus"}}, {"type": "node", "id": 358711336, "lat": 26.1284195, "lon": -80.1869911, "tags": {"amenity": "school", "ele": "1", "gnis:feature_id": "297161", "name": "Sabal Palm Elementary School"}}, {"type": "node", "id": 358711368, "lat": 26.1231417, "lon": -80.1289337, "tags": {"amenity": "school", "ele": "2", "gnis:feature_id": "297169", "name": "Exceptional/Student-Off Campus"}}, {"type": "node", "id": 358711377, "lat": 26.0868406, "lon": -80.2420854, "tags": {"amenity": "school", "ele": "1", "gnis:feature_id": "297170", "name": "Broward Fire Academy"}}, {"type": "node", "id": 358711380, "lat": 25.992591, "lon": -80.1433788, "tags": {"amenity": "school", "ele": "2", "gnis:feature_id": "297171", "name": "South Area Alternative Center"}}, {"type": "node", "id": 358711384, "lat": 25.98231, "lon": -80.1479356, "tags": {"amenity": "school", "ele": "3", "gnis:feature_id": "297172", "name": "Hallandale Adult and Community Center"}}, {"type": "node", "id": 358711400, "lat": 26.0448113, "lon": -80.154768, "tags": {"amenity": "school", "ele": "1", "gnis:feature_id": "297177", "name": "Mary M Bethune Elementary School"}}, {"type": "node", "id": 358711404, "lat": 26.0073127, "lon": -80.1414343, "tags": {"amenity": "school", "ele": "2", "gnis:feature_id": "297178", "name": "Hollywood Central Elementary School"}}, {"type": "node", "id": 358711431, "lat": 25.9906468, "lon": -80.1858802, "tags": {"amenity": "school", "ele": "2", "gnis:feature_id": "297185", "name": "Carver Ranches Center"}}, {"type": "node", "id": 358711502, "lat": 26.0745327, "lon": -80.2369928, "tags": {"amenity": "school", "ele": "2", "gnis:feature_id": "297205", "name": "D D Eisenhower Elementary School"}}, {"type": "node", "id": 358711506, "lat": 26.0761993, "lon": -80.2358816, "tags": {"amenity": "school", "ele": "2", "gnis:feature_id": "297206", "name": "Nova Middle School"}}, {"type": "node", "id": 358711512, "lat": 26.0761619, "lon": -80.2367691, "tags": {"amenity": "school", "ele": "2", "gnis:feature_id": "297207", "name": "Nova High School", "wikidata": "Q7064049", "wikipedia": "en:Nova High School"}}, {"type": "node", "id": 358711529, "lat": 26.0892541, "lon": -80.1475455, "tags": {"amenity": "school", "ele": "1", "gnis:feature_id": "297212", "name": "Seagull School"}}, {"type": "node", "id": 358711536, "lat": 26.2364708, "lon": -80.1094884, "tags": {"amenity": "school", "ele": "4", "gnis:feature_id": "297214", "name": "Pompano Beach Institute of International Studies"}}, {"type": "node", "id": 358711540, "lat": 26.2386929, "lon": -80.1094884, "tags": {"amenity": "school", "ele": "4", "gnis:feature_id": "297215", "name": "Pompano Beach Elementary School"}}, {"type": "node", "id": 358711550, "lat": 26.2814692, "lon": -80.124211, "tags": {"amenity": "school", "ele": "4", "gnis:feature_id": "297218", "name": "Tedder Elementary School"}}, {"type": "node", "id": 358711579, "lat": 26.1403644, "lon": -80.1734765, "tags": {"amenity": "school", "ele": "2", "gnis:feature_id": "297228", "name": "Dillard Elementary School"}}, {"type": "node", "id": 358711581, "lat": 26.1395302, "lon": -80.1914357, "tags": {"amenity": "school", "ele": "2", "gnis:feature_id": "297229", "name": "Windgate Oaks Center"}}, {"type": "node", "id": 358711584, "lat": 26.1439745, "lon": -80.2142141, "tags": {"amenity": "school", "ele": "2", "gnis:feature_id": "297230", "name": "Lauderhill Paul Turner Elementary School"}}, {"type": "node", "id": 358711610, "lat": 26.1739733, "lon": -80.1853243, "tags": {"amenity": "school", "ele": "1", "gnis:feature_id": "297238", "name": "Oriole Elementary School"}}, {"type": "node", "id": 358711613, "lat": 26.1745289, "lon": -80.1836576, "tags": {"amenity": "school", "ele": "1", "gnis:feature_id": "297239", "name": "Lauderdale Lakes Middle School"}}, {"type": "node", "id": 358711629, "lat": 26.2439706, "lon": -80.1622679, "tags": {"amenity": "school", "ele": "4", "gnis:feature_id": "297244", "name": "North Point School"}}, {"type": "node", "id": 358711635, "lat": 26.2375544, "lon": -80.1829302, "tags": {"addr:city": "Coconut Creek", "addr:housenumber": "500", "addr:postcode": "33066", "addr:state": "FL", "addr:street": "Northwest 45th Avenue", "amenity": "school", "ele": "4", "gnis:feature_id": "297246", "name": "Coconut Creek Elementary School"}}, {"type": "node", "id": 358712112, "lat": 25.8845918, "lon": -80.1324233, "tags": {"amenity": "school", "ele": "1", "gnis:feature_id": "297460", "name": "Bay Harbor Elementary School"}}, {"type": "node", "id": 358712120, "lat": 25.9042612, "lon": -80.2481047, "tags": {"amenity": "school", "ele": "2", "gnis:feature_id": "297462", "name": "Opa-Locka Elementary School"}}, {"type": "node", "id": 358712553, "lat": 25.8747368, "lon": -80.2679789, "tags": {"amenity": "school", "ele": "1", "gnis:feature_id": "297629", "name": "Home/Hospital Instructional Program"}}, {"type": "node", "id": 358713912, "lat": 26.1384638, "lon": -80.2371074}, {"type": "node", "id": 358715702, "lat": 26.0486999, "lon": -80.0886548, "tags": {"amenity": "school", "ele": "0", "gnis:feature_id": "298736", "name": "Boca Raton Elementary School"}}, {"type": "node", "id": 358718944, "lat": 25.93176, "lon": -80.1669908, "tags": {"amenity": "school", "ele": "3", "gnis:feature_id": "299724", "name": "Southeastern College of Osteopathic Medicine"}}, {"type": "node", "id": 358718987, "lat": 26.008146, "lon": -80.1400454, "tags": {"amenity": "school", "ele": "1", "gnis:feature_id": "299737", "name": "Prospect Hall College"}}, {"type": "node", "id": 358718990, "lat": 26.0100904, "lon": -80.1403232, "tags": {"amenity": "school", "ele": "2", "gnis:feature_id": "299738", "name": "Heed University"}}, {"type": "node", "id": 358718992, "lat": 26.1234195, "lon": -80.1289337, "tags": {"amenity": "school", "ele": "2", "gnis:feature_id": "299739", "name": "Fort Lauderdale College"}}, {"type": "node", "id": 358718995, "lat": 26.1189751, "lon": -80.1119887, "tags": {"amenity": "school", "ele": "0", "gnis:feature_id": "299740", "name": "Art Institute of Fort Lauderdale"}}, {"type": "node", "id": 358719002, "lat": 26.1878616, "lon": -80.1344893, "tags": {"amenity": "school", "ele": "1", "gnis:feature_id": "299742", "name": "National Education Center - Bauder College Campus"}}, {"type": "node", "id": 358719035, "lat": 26.1289751, "lon": -80.2556043, "tags": {"amenity": "school", "ele": "1", "gnis:feature_id": "299753", "name": "Our Savior Lutheran Preschool"}}, {"type": "node", "id": 358719038, "lat": 26.186473, "lon": -80.2525486, "tags": {"amenity": "school", "ele": "2", "gnis:feature_id": "299754", "name": "Inverrary School"}}, {"type": "node", "id": 358719041, "lat": 26.1989725, "lon": -80.2531041, "tags": {"amenity": "school", "ele": "3", "gnis:feature_id": "299755", "name": "Saint Malachy School"}}, {"type": "node", "id": 358719045, "lat": 26.2725806, "lon": -80.1072661, "tags": {"amenity": "school", "ele": "4", "gnis:feature_id": "299756", "name": "North Pompano Baptist Preschool"}}, {"type": "node", "id": 358719049, "lat": 26.2785732, "lon": -80.098217, "tags": {"amenity": "school", "ele": "3", "gnis:feature_id": "299757", "name": "First Christian Church Day School"}}, {"type": "node", "id": 358719052, "lat": 26.2815689, "lon": -80.098139, "tags": {"amenity": "school", "ele": "3", "gnis:feature_id": "299758", "name": "Hope Lutheran"}}, {"type": "node", "id": 358719071, "lat": 26.2739695, "lon": -80.1331002, "tags": {"amenity": "school", "ele": "4", "gnis:feature_id": "299765", "name": "Florida Ocean Sciences Institute"}}, {"type": "node", "id": 358719075, "lat": 26.2518665, "lon": -80.2181647, "tags": {"amenity": "school", "ele": "3", "gnis:feature_id": "299766", "name": "Faith Christian School"}}, {"type": "node", "id": 358719077, "lat": 26.2586924, "lon": -80.2350479, "tags": {"amenity": "school", "ele": "3", "gnis:feature_id": "299767", "name": "Coral Springs Christian School"}}, {"type": "node", "id": 358719078, "lat": 26.2734141, "lon": -80.2031024, "tags": {"amenity": "school", "ele": "4", "gnis:feature_id": "299768", "name": "Garrett Academy"}}, {"type": "node", "id": 358720978, "lat": 26.0939763, "lon": -80.1850467, "tags": {"amenity": "school", "ele": "1", "gnis:feature_id": "300713", "name": "Saint Ambrose Episcopal School"}}, {"type": "node", "id": 358720984, "lat": 25.9975908, "lon": -80.1367119, "tags": {"amenity": "school", "ele": "1", "gnis:feature_id": "300715", "name": "East Hollywood Private School"}}, {"type": "node", "id": 358720987, "lat": 25.9975908, "lon": -80.1350452, "tags": {"amenity": "school", "ele": "1", "gnis:feature_id": "300716", "name": "Banyan School"}}, {"type": "node", "id": 358720991, "lat": 25.9975909, "lon": -80.1636573, "tags": {"amenity": "school", "ele": "3", "gnis:feature_id": "300717", "name": "Westside Baptist Church School"}}, {"type": "node", "id": 358720994, "lat": 25.9759251, "lon": -80.1794911, "tags": {"amenity": "school", "ele": "2", "gnis:feature_id": "300718", "name": "Annunciation School"}}, {"type": "node", "id": 358720997, "lat": 25.9831471, "lon": -80.1978251, "tags": {"amenity": "school", "ele": "2", "gnis:feature_id": "300719", "name": "Hilltop Montessori School"}}, {"type": "node", "id": 358721001, "lat": 25.9848137, "lon": -80.1967139, "tags": {"amenity": "school", "ele": "2", "gnis:feature_id": "300720", "name": "Atlantis Private School"}}, {"type": "node", "id": 358721003, "lat": 25.9850915, "lon": -80.2033808, "tags": {"amenity": "school", "ele": "3", "gnis:feature_id": "300721", "name": "Mirawood Day School"}}, {"type": "node", "id": 358721007, "lat": 25.9837027, "lon": -80.2097699, "tags": {"amenity": "school", "ele": "3", "gnis:feature_id": "300722", "name": "Full Service School"}}, {"type": "node", "id": 358721010, "lat": 25.9823139, "lon": -80.2489378, "tags": {"amenity": "school", "ele": "1", "gnis:feature_id": "300723", "name": "Saint Bartholomew School"}}, {"type": "node", "id": 358721013, "lat": 25.9939801, "lon": -80.2294927, "tags": {"amenity": "school", "ele": "2", "gnis:feature_id": "300724", "name": "Pembroke Christian Academy"}}, {"type": "node", "id": 358721017, "lat": 25.9948134, "lon": -80.2100477, "tags": {"amenity": "school", "ele": "3", "gnis:feature_id": "300725", "name": "Angels Corner School"}}, {"type": "node", "id": 358721020, "lat": 26.0519989, "lon": -80.2567638, "tags": {"amenity": "school", "ele": "1", "gnis:feature_id": "300726", "name": "Hilltop Montessori School"}}, {"type": "node", "id": 358721022, "lat": 26.0439784, "lon": -80.2697716, "tags": {"amenity": "school", "ele": "1", "gnis:feature_id": "300727", "name": "All American Memorial Church School"}}, {"type": "node", "id": 358721026, "lat": 26.0145346, "lon": -80.1164335, "tags": {"amenity": "school", "ele": "1", "gnis:feature_id": "300728", "name": "Nowlin Ocean View Private School"}}, {"type": "node", "id": 358721028, "lat": 26.0064795, "lon": -80.1639351, "tags": {"amenity": "school", "ele": "3", "gnis:feature_id": "300729", "name": "Delphi Academy"}}, {"type": "node", "id": 358721032, "lat": 26.0100904, "lon": -80.1622683, "tags": {"amenity": "school", "ele": "3", "gnis:feature_id": "300730", "name": "Developmental Resource Center Day School"}}, {"type": "node", "id": 358721035, "lat": 26.0098126, "lon": -80.1433788, "tags": {"amenity": "school", "ele": "2", "gnis:feature_id": "300731", "name": "First United Methodist Christian Day School"}}, {"type": "node", "id": 358721037, "lat": 26.0142569, "lon": -80.1553237, "tags": {"amenity": "school", "ele": "3", "gnis:feature_id": "300732", "name": "Hollywood Junior Academy"}}, {"type": "node", "id": 358721040, "lat": 26.016479, "lon": -80.1442121, "tags": {"amenity": "school", "ele": "2", "gnis:feature_id": "300733", "name": "Little Flower School"}}, {"type": "node", "id": 358721043, "lat": 26.0164791, "lon": -80.1511568, "tags": {"amenity": "school", "ele": "3", "gnis:feature_id": "300734", "name": "Sungate Academy"}}, {"type": "node", "id": 358721045, "lat": 26.0223121, "lon": -80.1444899, "tags": {"amenity": "school", "ele": "2", "gnis:feature_id": "300735", "name": "ABC School"}}, {"type": "node", "id": 358721049, "lat": 26.0253676, "lon": -80.1467122, "tags": {"amenity": "school", "ele": "3", "gnis:feature_id": "300736", "name": "Chur-Lee Educational Day Care Center"}}, {"type": "node", "id": 358721052, "lat": 26.0389782, "lon": -80.1519901, "tags": {"amenity": "school", "ele": "2", "gnis:feature_id": "300737", "name": "South Broward Cradle Nursery"}}, {"type": "node", "id": 358721058, "lat": 26.0225901, "lon": -80.190047, "tags": {"amenity": "school", "ele": "2", "gnis:feature_id": "300739", "name": "Beth Shalem Day School"}}, {"type": "node", "id": 358721061, "lat": 26.0109239, "lon": -80.1983805, "tags": {"amenity": "school", "ele": "3", "gnis:feature_id": "300740", "name": "Hollywood Hills Private School"}}, {"type": "node", "id": 358721065, "lat": 26.0170348, "lon": -80.2117143, "tags": {"amenity": "school", "ele": "4", "gnis:feature_id": "300741", "name": "West Hollywood Private School"}}, {"type": "node", "id": 358721070, "lat": 26.0253678, "lon": -80.2089365, "tags": {"amenity": "school", "ele": "3", "gnis:feature_id": "300742", "name": "Hollywood Christian School"}}, {"type": "node", "id": 358721073, "lat": 26.0350896, "lon": -80.209492, "tags": {"amenity": "school", "ele": "1", "gnis:feature_id": "300743", "name": "Galaxy Grade School"}}, {"type": "node", "id": 358721077, "lat": 26.0270345, "lon": -80.221159, "tags": {"amenity": "school", "ele": "1", "gnis:feature_id": "300744", "name": "Driftwood Nursery School"}}, {"type": "node", "id": 358721079, "lat": 26.0234236, "lon": -80.2469932, "tags": {"amenity": "school", "ele": "1", "gnis:feature_id": "300745", "name": "Alpha Day School"}}, {"type": "node", "id": 358721082, "lat": 26.034812, "lon": -80.2478266, "tags": {"amenity": "school", "ele": "1", "gnis:feature_id": "300746", "name": "Beacon Hill School"}}, {"type": "node", "id": 358721086, "lat": 26.0362008, "lon": -80.2389374, "tags": {"amenity": "school", "ele": "1", "gnis:feature_id": "300747", "name": "Prince of Peace Lutheran School"}}, {"type": "node", "id": 358721089, "lat": 26.0437005, "lon": -80.238104, "tags": {"amenity": "school", "ele": "1", "gnis:feature_id": "300748", "name": "Saint Bernadette School"}}, {"type": "node", "id": 358721093, "lat": 26.0628663, "lon": -80.1803244, "tags": {"amenity": "school", "ele": "1", "gnis:feature_id": "300749", "name": "Shining Hours Academy"}}, {"type": "node", "id": 358721096, "lat": 26.0642553, "lon": -80.2283814, "tags": {"amenity": "school", "ele": "1", "gnis:feature_id": "300750", "name": "Love-N-Care Day Nurseries"}}, {"type": "node", "id": 358721098, "lat": 26.0664774, "lon": -80.2297704, "tags": {"amenity": "school", "ele": "1", "gnis:feature_id": "300751", "name": "Academy Senior High School"}}, {"type": "node", "id": 358721102, "lat": 26.0740746, "lon": -80.2492414, "tags": {"amenity": "school", "ele": "2", "gnis:feature_id": "300752", "name": "Lutheran High School of South Florida"}}, {"type": "node", "id": 358721105, "lat": 26.0736994, "lon": -80.2350483, "tags": {"amenity": "school", "ele": "2", "gnis:feature_id": "300753", "name": "Montessori Childrens House"}}, {"type": "node", "id": 358721109, "lat": 26.0970318, "lon": -80.1997693, "tags": {"amenity": "school", "ele": "3", "gnis:feature_id": "300754", "name": "Fern Ridge Day School"}}, {"type": "node", "id": 358721112, "lat": 26.1073091, "lon": -80.1850467, "tags": {"amenity": "school", "ele": "2", "gnis:feature_id": "300755", "name": "Faith Lutheran School"}}, {"type": "node", "id": 358721115, "lat": 26.1084202, "lon": -80.1789354, "tags": {"amenity": "school", "ele": "1", "gnis:feature_id": "300756", "name": "Our Lady Queen of Martyrs School"}}, {"type": "node", "id": 358721118, "lat": 26.1073658, "lon": -80.1645918, "tags": {"amenity": "school", "ele": "1", "gnis:feature_id": "300757", "name": "Summit Private School"}}, {"type": "node", "id": 358721121, "lat": 26.1095312, "lon": -80.1436564, "tags": {"amenity": "school", "ele": "1", "gnis:feature_id": "300758", "name": "Atlantic Christian Academy"}}, {"type": "node", "id": 358721124, "lat": 26.1098089, "lon": -80.146712, "tags": {"amenity": "school", "ele": "1", "gnis:feature_id": "300759", "name": "Lutheran Central School"}}, {"type": "node", "id": 358721127, "lat": 26.1120311, "lon": -80.1367117, "tags": {"amenity": "school", "ele": "3", "gnis:feature_id": "300760", "name": "Bethany Christian School"}}, {"type": "node", "id": 358721130, "lat": 26.1128643, "lon": -80.1381007, "tags": {"amenity": "school", "ele": "2", "gnis:feature_id": "300761", "name": "Florida Oaks School"}}, {"type": "node", "id": 358721134, "lat": 26.1190574, "lon": -80.198838, "tags": {"amenity": "school", "ele": "2", "gnis:feature_id": "300762", "name": "Plantation Christian Academy"}}, {"type": "node", "id": 358721136, "lat": 26.1228642, "lon": -80.2103252, "tags": {"amenity": "school", "ele": "3", "gnis:feature_id": "300763", "name": "Plantation Early Childhood School"}}, {"type": "node", "id": 358721138, "lat": 26.0232637, "lon": -80.2754596, "tags": {"amenity": "school", "ele": "1", "gnis:feature_id": "300764", "name": "Faith Child Development Center"}}, {"type": "node", "id": 358721141, "lat": 26.0225903, "lon": -80.2653271, "tags": {"amenity": "school", "ele": "1", "gnis:feature_id": "300765", "name": "Pembroke Lakes Academy"}}, {"type": "node", "id": 358721151, "lat": 26.1059205, "lon": -80.2553267, "tags": {"amenity": "school", "ele": "2", "gnis:feature_id": "300768", "name": "Temple Koi Ami Preschool"}}, {"type": "node", "id": 358721154, "lat": 26.1059205, "lon": -80.2581044, "tags": {"amenity": "school", "ele": "1", "gnis:feature_id": "300769", "name": "Jacaranda School"}}, {"type": "node", "id": 358721157, "lat": 26.1039762, "lon": -80.3128281, "tags": {"amenity": "school", "ele": "1", "gnis:feature_id": "300770", "name": "Broward Christian School"}}, {"type": "node", "id": 358721160, "lat": 26.1203644, "lon": -80.3008833, "tags": {"amenity": "school", "ele": "1", "gnis:feature_id": "300771", "name": "Alpha Day School"}}, {"type": "node", "id": 358721165, "lat": 26.1242532, "lon": -80.3050501, "tags": {"amenity": "school", "ele": "1", "gnis:feature_id": "300773", "name": "Seventh-Day Adventist Christian School"}}, {"type": "node", "id": 358721167, "lat": 26.1430144, "lon": -80.1214817, "tags": {"amenity": "school", "ele": "1", "gnis:feature_id": "300774", "name": "Grace Lutheran Learning Center"}}, {"type": "node", "id": 358721169, "lat": 26.1450266, "lon": -80.1286423, "tags": {"amenity": "school", "ele": "2", "gnis:feature_id": "300775", "name": "Second Presbyterian Church School"}}, {"type": "node", "id": 358721172, "lat": 26.1600837, "lon": -80.1242183, "tags": {"amenity": "school", "ele": "1", "gnis:feature_id": "300776", "name": "American Academy"}}, {"type": "node", "id": 358721174, "lat": 26.1658043, "lon": -80.1234262, "tags": {"amenity": "school", "ele": "2", "gnis:feature_id": "300777", "name": "Episcopal High School"}}, {"type": "node", "id": 358721179, "lat": 26.1883482, "lon": -80.1118799, "tags": {"amenity": "school", "ele": "1", "gnis:feature_id": "300779", "name": "Christ Church School"}}, {"type": "node", "id": 358721181, "lat": 26.1911947, "lon": -80.1133775, "tags": {"amenity": "school", "ele": "1", "gnis:feature_id": "300780", "name": "Oxford Academy"}}, {"type": "node", "id": 358721183, "lat": 26.1892504, "lon": -80.1206, "tags": {"amenity": "school", "ele": "4", "gnis:feature_id": "300781", "name": "Peace Lutheran School"}}, {"type": "node", "id": 358721185, "lat": 26.2364708, "lon": -80.1142108, "tags": {"amenity": "school", "ele": "4", "gnis:feature_id": "300782", "name": "Kiddle Kollege"}}, {"type": "node", "id": 358721187, "lat": 26.1303637, "lon": -80.1581013, "tags": {"amenity": "school", "ele": "2", "gnis:feature_id": "300783", "name": "Cradle Nursery"}}, {"type": "node", "id": 358721191, "lat": 26.1345303, "lon": -80.1608791, "tags": {"amenity": "school", "ele": "2", "gnis:feature_id": "300784", "name": "Ascension Child Care Center"}}, {"type": "node", "id": 358721194, "lat": 26.1370302, "lon": -80.15449, "tags": {"amenity": "school", "ele": "2", "gnis:feature_id": "300785", "name": "Grace Brethren Christian School"}}, {"type": "node", "id": 358721197, "lat": 26.1386967, "lon": -80.1442119, "tags": {"amenity": "school", "ele": "1", "gnis:feature_id": "300786", "name": "Little Schoolhouse"}}, {"type": "node", "id": 358721200, "lat": 26.1428632, "lon": -80.1331004, "tags": {"amenity": "school", "ele": "1", "gnis:feature_id": "300787", "name": "Foxmount Preparatory School"}}, {"type": "node", "id": 358721203, "lat": 26.14203, "lon": -80.155879, "tags": {"amenity": "school", "ele": "2", "gnis:feature_id": "300788", "name": "Good Day School"}}, {"type": "node", "id": 358721207, "lat": 26.1428633, "lon": -80.1731017, "tags": {"amenity": "school", "ele": "2", "gnis:feature_id": "300789", "name": "Dillard Park Day Care Center"}}, {"type": "node", "id": 358721209, "lat": 26.1492519, "lon": -80.1431007, "tags": {"amenity": "school", "ele": "1", "gnis:feature_id": "300790", "name": "Alpha and Omega Private School"}}, {"type": "node", "id": 358721212, "lat": 26.1492519, "lon": -80.1456008, "tags": {"amenity": "school", "ele": "1", "gnis:feature_id": "300791", "name": "Montessori Learning Center"}}, {"type": "node", "id": 358721216, "lat": 26.1503629, "lon": -80.1325449, "tags": {"amenity": "school", "ele": "1", "gnis:feature_id": "300792", "name": "Barrett Hall Preschool"}}, {"type": "node", "id": 358721220, "lat": 26.2323043, "lon": -80.1092106, "tags": {"amenity": "school", "ele": "4", "gnis:feature_id": "300794", "name": "Childrens Workshop"}}, {"type": "node", "id": 358721223, "lat": 26.2323043, "lon": -80.1228223, "tags": {"amenity": "school", "ele": "4", "gnis:feature_id": "300795", "name": "First Baptist Preschool"}}, {"type": "node", "id": 358721224, "lat": 26.2378597, "lon": -80.1033771, "tags": {"amenity": "school", "ele": "2", "gnis:feature_id": "300796", "name": "Americana Preparatory School"}}, {"type": "node", "id": 358721227, "lat": 26.1525851, "lon": -80.1536567, "tags": {"amenity": "school", "ele": "1", "gnis:feature_id": "300797", "name": "Faith Christian Academy"}}, {"type": "node", "id": 358721229, "lat": 26.1592515, "lon": -80.1392117, "tags": {"amenity": "school", "ele": "2", "gnis:feature_id": "300798", "name": "Covenant Presbyterian Kindergarten"}}, {"type": "node", "id": 358721231, "lat": 26.1636946, "lon": -80.1289408, "tags": {"amenity": "school", "ele": "1", "gnis:feature_id": "300799", "name": "Rebecca M Berhow Academy"}}, {"type": "node", "id": 358721234, "lat": 26.1745288, "lon": -80.1461564, "tags": {"amenity": "school", "ele": "1", "gnis:feature_id": "300800", "name": "Just for Kids Academy"}}, {"type": "node", "id": 358721236, "lat": 26.1886948, "lon": -80.1433785, "tags": {"amenity": "school", "ele": "2", "gnis:feature_id": "300801", "name": "Children Garden Montessori School"}}, {"type": "node", "id": 358721239, "lat": 26.2100873, "lon": -80.1322474, "tags": {"amenity": "school", "ele": "1", "gnis:feature_id": "300802", "name": "Memorial Christian School"}}, {"type": "node", "id": 358721243, "lat": 26.1206421, "lon": -80.2456041, "tags": {"amenity": "school", "ele": "1", "gnis:feature_id": "300804", "name": "Wee Care of Plantation Learning Center"}}, {"type": "node", "id": 358721245, "lat": 26.1359193, "lon": -80.2364371, "tags": {"amenity": "school", "ele": "1", "gnis:feature_id": "300805", "name": "Hebrew Day School of Fort Lauderdale"}}, {"type": "node", "id": 358721247, "lat": 26.1361645, "lon": -80.2422059, "tags": {"amenity": "school", "ele": "1", "gnis:feature_id": "300806", "name": "Plantation Methodist School"}}, {"type": "node", "id": 358721251, "lat": 26.1492521, "lon": -80.2450485, "tags": {"amenity": "school", "ele": "1", "gnis:feature_id": "300808", "name": "Blake School"}}, {"type": "node", "id": 358721253, "lat": 26.1503632, "lon": -80.2264368, "tags": {"amenity": "school", "ele": "2", "gnis:feature_id": "300809", "name": "Duval Academy"}}, {"type": "node", "id": 358721255, "lat": 26.1515899, "lon": -80.2339741, "tags": {"amenity": "school", "ele": "1", "gnis:feature_id": "300810", "name": "Kinder Care Learning Center"}}, {"type": "node", "id": 358721257, "lat": 26.1575851, "lon": -80.2153253, "tags": {"amenity": "school", "ele": "2", "gnis:feature_id": "300811", "name": "Sarshalom Hebrew Academy"}}, {"type": "node", "id": 358721259, "lat": 26.1592517, "lon": -80.2031026, "tags": {"amenity": "school", "ele": "3", "gnis:feature_id": "300812", "name": "Peace Christian School"}}, {"type": "node", "id": 358721261, "lat": 26.1648069, "lon": -80.1914357, "tags": {"amenity": "school", "ele": "3", "gnis:feature_id": "300813", "name": "Saint Helen School"}}, {"type": "node", "id": 358721263, "lat": 26.1659181, "lon": -80.1856021, "tags": {"amenity": "school", "ele": "1", "gnis:feature_id": "300814", "name": "Small Fry Educational Day Care School"}}, {"type": "node", "id": 358721265, "lat": 26.203709, "lon": -80.187726}, {"type": "node", "id": 358721267, "lat": 26.2161939, "lon": -80.2067138, "tags": {"amenity": "school", "ele": "3", "gnis:feature_id": "300817", "name": "North Lauderdale Christian School"}}, {"type": "node", "id": 358721269, "lat": 26.2220271, "lon": -80.2072694, "tags": {"amenity": "school", "ele": "3", "gnis:feature_id": "300818", "name": "Alphabet Academy"}}, {"type": "node", "id": 358721271, "lat": 26.2348043, "lon": -80.2069915, "tags": {"amenity": "school", "ele": "3", "gnis:feature_id": "300819", "name": "Summit Private School"}}, {"type": "node", "id": 358721273, "lat": 26.241193, "lon": -80.2069915, "tags": {"amenity": "school", "ele": "3", "gnis:feature_id": "300820", "name": "Lake Shore Private School"}}, {"type": "node", "id": 358721275, "lat": 26.2470262, "lon": -80.2144917, "tags": {"amenity": "school", "ele": "3", "gnis:feature_id": "300821", "name": "A Country Day School of Margate"}}, {"type": "node", "id": 358725725, "lat": 26.1153644, "lon": -80.1828244, "tags": {"amenity": "school", "ele": "2", "gnis:feature_id": "302817", "name": "Troywood Learning Environment"}}, {"type": "node", "id": 358727640, "lat": 25.8623179, "lon": -80.1261563, "tags": {"amenity": "school", "ele": "0", "gnis:feature_id": "303364", "name": "Normandy School"}}, {"type": "node", "id": 358727679, "lat": 25.9237048, "lon": -80.1911583, "tags": {"amenity": "school", "ele": "3", "gnis:feature_id": "303376", "name": "Saint John Boscos Kindergarten"}}, {"type": "node", "id": 358727684, "lat": 25.9192605, "lon": -80.1828248, "tags": {"amenity": "school", "ele": "2", "gnis:feature_id": "303377", "name": "Pan American Institute"}}, {"type": "node", "id": 358727687, "lat": 25.9423151, "lon": -80.1753245, "tags": {"amenity": "school", "ele": "2", "gnis:feature_id": "303378", "name": "Miami Aerospace Academy"}}, {"type": "node", "id": 358727691, "lat": 25.9320379, "lon": -80.1989364, "tags": {"amenity": "school", "ele": "3", "gnis:feature_id": "303379", "name": "Lincoln-Marti Nursery School"}}, {"type": "node", "id": 358727695, "lat": 25.9156495, "lon": -80.1819914, "tags": {"amenity": "school", "ele": "2", "gnis:feature_id": "303380", "name": "Gingerbread House Day Nursery"}}, {"type": "node", "id": 358727699, "lat": 25.9220382, "lon": -80.1683798, "tags": {"amenity": "school", "ele": "3", "gnis:feature_id": "303381", "name": "Centro Educational Angel E Fuster School"}}, {"type": "node", "id": 358727704, "lat": 25.9350933, "lon": -80.1964363, "tags": {"amenity": "school", "ele": "3", "gnis:feature_id": "303383", "name": "Academia Rico"}}, {"type": "node", "id": 358727720, "lat": 25.8842618, "lon": -80.185325, "tags": {"amenity": "school", "ele": "1", "gnis:feature_id": "303388", "name": "Von Wedel-Gardiner School"}}, {"type": "node", "id": 358727724, "lat": 25.8959281, "lon": -80.2025477, "tags": {"amenity": "school", "ele": "4", "gnis:feature_id": "303389", "name": "Small Fry School - Second Campus"}}, {"type": "node", "id": 358727727, "lat": 25.8948169, "lon": -80.1719911, "tags": {"amenity": "school", "ele": "2", "gnis:feature_id": "303390", "name": "North Miami Early Childhood School"}}, {"type": "node", "id": 358727732, "lat": 25.8773176, "lon": -80.2306042, "tags": {"amenity": "school", "ele": "2", "gnis:feature_id": "303391", "name": "Cooper School"}}, {"type": "node", "id": 358727734, "lat": 25.8853728, "lon": -80.1711578, "tags": {"amenity": "school", "ele": "2", "gnis:feature_id": "303392", "name": "Bethany Evangelical Covenant Kindergarten"}}, {"type": "node", "id": 358727738, "lat": 25.9314822, "lon": -80.166713, "tags": {"amenity": "school", "ele": "3", "gnis:feature_id": "303393", "name": "The Little Sailors School"}}, {"type": "node", "id": 358727899, "lat": 25.8703734, "lon": -80.2067145, "tags": {"amenity": "school", "ele": "5", "gnis:feature_id": "303446", "name": "Lincoln-Marti Day Care Center"}}, {"type": "node", "id": 358727901, "lat": 25.8650958, "lon": -80.2069923, "tags": {"amenity": "school", "ele": "3", "gnis:feature_id": "303447", "name": "Juanitas Day Care"}}, {"type": "node", "id": 358727907, "lat": 25.8678735, "lon": -80.219215, "tags": {"amenity": "school", "ele": "1", "gnis:feature_id": "303449", "name": "Early Advantage Kindergarten"}}, {"type": "node", "id": 358727909, "lat": 25.8642626, "lon": -80.2378268, "tags": {"amenity": "school", "ele": "2", "gnis:feature_id": "303450", "name": "Bible Baptist Church Day Care Center"}}, {"type": "node", "id": 358727912, "lat": 25.955926, "lon": -80.2172702, "tags": {"amenity": "school", "ele": "3", "gnis:feature_id": "303451", "name": "Sunshine Day Care Center"}}, {"type": "node", "id": 358727915, "lat": 25.9553704, "lon": -80.2036587, "tags": {"amenity": "school", "ele": "3", "gnis:feature_id": "303452", "name": "Small Fry School - First Campus"}}, {"type": "node", "id": 358727917, "lat": 25.9520372, "lon": -80.2122701, "tags": {"amenity": "school", "ele": "2", "gnis:feature_id": "303453", "name": "Sierra Norwood Child Development Center"}}, {"type": "node", "id": 358727920, "lat": 25.9350934, "lon": -80.2269928, "tags": {"amenity": "school", "ele": "1", "gnis:feature_id": "303454", "name": "Robert King High Preschool"}}, {"type": "node", "id": 358727922, "lat": 25.9312046, "lon": -80.2236594, "tags": {"amenity": "school", "ele": "1", "gnis:feature_id": "303455", "name": "North Dade Regional Academy"}}, {"type": "node", "id": 358727925, "lat": 25.9481485, "lon": -80.2197703, "tags": {"amenity": "school", "ele": "2", "gnis:feature_id": "303456", "name": "Norland Methodist Preschool"}}, {"type": "node", "id": 358727928, "lat": 25.9392599, "lon": -80.2181036, "tags": {"amenity": "school", "ele": "2", "gnis:feature_id": "303457", "name": "Doreens School"}}, {"type": "node", "id": 358727930, "lat": 25.9445375, "lon": -80.2128257, "tags": {"amenity": "school", "ele": "2", "gnis:feature_id": "303458", "name": "Bethany Lutheran Kindergarten"}}, {"type": "node", "id": 358727941, "lat": 25.8642624, "lon": -80.1278231, "tags": {"amenity": "school", "ele": "1", "gnis:feature_id": "303462", "name": "Little White Schoolhouse"}}, {"type": "node", "id": 358727947, "lat": 25.8667623, "lon": -80.1278231, "tags": {"amenity": "school", "ele": "1", "gnis:feature_id": "303463", "name": "Knobel School"}}, {"type": "node", "id": 358727950, "lat": 25.8631513, "lon": -80.1372678, "tags": {"amenity": "school", "ele": "2", "gnis:feature_id": "303464", "name": "Fulford Christian Day Care Center"}}, {"type": "node", "id": 358728029, "lat": 25.8809286, "lon": -80.2017143, "tags": {"amenity": "school", "ele": "3", "gnis:feature_id": "303488", "name": "Bennies Day Care and Kindergarten"}}, {"type": "node", "id": 358728033, "lat": 25.8881506, "lon": -80.1986587, "tags": {"amenity": "school", "ele": "3", "gnis:feature_id": "303489", "name": "Busy Bees Day Care Center"}}, {"type": "node", "id": 358728036, "lat": 25.8970392, "lon": -80.2289375, "tags": {"amenity": "school", "ele": "3", "gnis:feature_id": "303490", "name": "Early Childhood Education Center"}}, {"type": "node", "id": 358728039, "lat": 25.8870396, "lon": -80.2194927, "tags": {"amenity": "school", "ele": "3", "gnis:feature_id": "303491", "name": "Michaels Kindergarten"}}, {"type": "node", "id": 358728043, "lat": 25.929538, "lon": -80.2089367, "tags": {"amenity": "school", "ele": "2", "gnis:feature_id": "303492", "name": "Monsignor Edward Pace High School"}}, {"type": "node", "id": 358728048, "lat": 25.909261, "lon": -80.2225483, "tags": {"amenity": "school", "ele": "2", "gnis:feature_id": "303493", "name": "Our Lady of Perpetual Help School"}}, {"type": "node", "id": 358728050, "lat": 25.9042611, "lon": -80.2119924, "tags": {"amenity": "school", "ele": "4", "gnis:feature_id": "303494", "name": "Saint Phillips Guardian Angel Day Care"}}, {"type": "node", "id": 358728054, "lat": 25.8959281, "lon": -80.2122702, "tags": {"amenity": "school", "ele": "4", "gnis:feature_id": "303495", "name": "Vankara School"}}, {"type": "node", "id": 358728058, "lat": 25.8914838, "lon": -80.213937, "tags": {"amenity": "school", "ele": "4", "gnis:feature_id": "303496", "name": "Work and Play Day Care Center"}}, {"type": "node", "id": 358728132, "lat": 25.8712067, "lon": -80.2039367, "tags": {"amenity": "school", "ele": "3", "gnis:feature_id": "303613", "name": "Lafayette Private School"}}, {"type": "node", "id": 358728135, "lat": 25.8684292, "lon": -80.2622719, "tags": {"amenity": "school", "ele": "2", "gnis:feature_id": "303614", "name": "La Divina Providencia Episcopal Church School"}}, {"type": "node", "id": 358728672, "lat": 25.8759288, "lon": -80.2136592, "tags": {"amenity": "school", "ele": "3", "gnis:feature_id": "303806", "name": "Von Wedel Montessori School"}}, {"type": "node", "id": 358728675, "lat": 25.878151, "lon": -80.2108813, "tags": {"amenity": "school", "ele": "4", "gnis:feature_id": "303807", "name": "Vann Academy"}}, {"type": "node", "id": 358728678, "lat": 25.8892617, "lon": -80.2219928, "tags": {"amenity": "school", "ele": "3", "gnis:feature_id": "303808", "name": "Trinity Christian Academy"}}, {"type": "node", "id": 358728684, "lat": 25.9170383, "lon": -80.1697688, "tags": {"amenity": "school", "ele": "2", "gnis:feature_id": "303810", "name": "Temple Samu-el Early Childhood Educational Program"}}, {"type": "node", "id": 358728688, "lat": 25.8934281, "lon": -80.1844915, "tags": {"amenity": "school", "ele": "2", "gnis:feature_id": "303811", "name": "Temple Beth Moshe School"}}, {"type": "node", "id": 358728703, "lat": 25.9073164, "lon": -80.1692132, "tags": {"amenity": "school", "ele": "1", "gnis:feature_id": "303817", "name": "Siegler School"}}, {"type": "node", "id": 358728708, "lat": 25.9003723, "lon": -80.1872694, "tags": {"amenity": "school", "ele": "2", "gnis:feature_id": "303819", "name": "Shady Acres School"}}, {"type": "node", "id": 358728732, "lat": 25.8698179, "lon": -80.2428269, "tags": {"amenity": "school", "ele": "2", "gnis:feature_id": "303827", "name": "Riverside Child Development Center"}}, {"type": "node", "id": 358728778, "lat": 25.9003724, "lon": -80.2122702, "tags": {"amenity": "school", "ele": "4", "gnis:feature_id": "303836", "name": "Northwest Christian Academy"}}, {"type": "node", "id": 358728793, "lat": 25.9137053, "lon": -80.2428268, "tags": {"amenity": "school", "ele": "1", "gnis:feature_id": "303841", "name": "Jewish High School of South Florida"}}, {"type": "node", "id": 358728808, "lat": 25.876762, "lon": -80.1872694, "tags": {"amenity": "school", "ele": "2", "gnis:feature_id": "303848", "name": "Miami Shores Preparation School"}}, {"type": "node", "id": 358728810, "lat": 25.876762, "lon": -80.1803248, "tags": {"amenity": "school", "ele": "2", "gnis:feature_id": "303849", "name": "Miami Shores Community Church Day Care"}}, {"type": "node", "id": 358728848, "lat": 25.9156495, "lon": -80.1706021, "tags": {"amenity": "school", "ele": "2", "gnis:feature_id": "303861", "name": "Donalds Day Care"}}, {"type": "node", "id": 358729050, "lat": 25.9100941, "lon": -80.1747689, "tags": {"amenity": "school", "ele": "1", "gnis:feature_id": "304140", "name": "Kiddie Country Club"}}, {"type": "node", "id": 358729073, "lat": 25.9420376, "lon": -80.2331041, "tags": {"amenity": "school", "ele": "2", "gnis:feature_id": "304147", "name": "Williams Day Care and Kindergarten"}}, {"type": "node", "id": 358729077, "lat": 25.9434264, "lon": -80.2086589, "tags": {"amenity": "school", "ele": "3", "gnis:feature_id": "304148", "name": "Saint Timothy Lutheran Church Preschool"}}, {"type": "node", "id": 358729079, "lat": 25.9670365, "lon": -80.1567126, "tags": {"amenity": "school", "ele": "1", "gnis:feature_id": "304149", "name": "New Bethel Temple Day Care"}}, {"type": "node", "id": 358729083, "lat": 25.942038, "lon": -80.423387, "tags": {"amenity": "school", "ele": "1", "gnis:feature_id": "304150", "name": "Happy Day Nursery"}}, {"type": "node", "id": 358729086, "lat": 25.9337044, "lon": -80.1817135, "tags": {"amenity": "school", "ele": "2", "gnis:feature_id": "304152", "name": "Chandler Academy"}}, {"type": "node", "id": 358729290, "lat": 25.9943423, "lon": -80.2297179, "tags": {"amenity": "school", "ele": "2", "gnis:feature_id": "304233", "name": "Pembroke Road School"}}, {"type": "node", "id": 358729392, "lat": 25.9839803, "lon": -80.1525458, "tags": {"amenity": "school", "ele": "2", "gnis:feature_id": "304263", "name": "Hallandale School"}}, {"type": "node", "id": 358729465, "lat": 25.9423715, "lon": -80.2270505}, {"type": "node", "id": 358729470, "lat": 25.9387044, "lon": -80.2367153, "tags": {"amenity": "school", "ele": "2", "gnis:feature_id": "304278", "name": "Beacon Hill School"}}, {"type": "node", "id": 358729518, "lat": 25.9292596, "lon": -79.9997631, "tags": {"amenity": "school", "ele": "0", "gnis:county_id": "086", "gnis:created": "08/28/1987", "gnis:feature_id": "304298", "gnis:state_id": "12", "name": "North Miami Beach Senior High School"}}, {"type": "node", "id": 358729531, "lat": 25.9262046, "lon": -80.1783801, "tags": {"amenity": "school", "ele": "3", "gnis:feature_id": "304302", "name": "Beth Torah School"}}, {"type": "node", "id": 358729541, "lat": 25.9503704, "lon": -80.1556015, "tags": {"amenity": "school", "ele": "1", "gnis:feature_id": "304305", "name": "Rosenblum Synagogue School"}}, {"type": "node", "id": 358729579, "lat": 25.9042612, "lon": -80.2483825, "tags": {"amenity": "school", "ele": "2", "gnis:feature_id": "304319", "name": "Opa-Locka School"}}, {"type": "node", "id": 358729589, "lat": 25.8959282, "lon": -80.2453269, "tags": {"amenity": "school", "ele": "1", "gnis:feature_id": "304322", "name": "Our Lady of Perpetual Help School"}}, {"type": "node", "id": 358729595, "lat": 25.8957326, "lon": -80.2201065}, {"type": "node", "id": 358729601, "lat": 25.8906505, "lon": -80.2106035, "tags": {"amenity": "school", "ele": "4", "gnis:feature_id": "304326", "name": "Trinity Christian Academy"}}, {"type": "node", "id": 358729608, "lat": 25.9095387, "lon": -80.2111591, "tags": {"amenity": "school", "ele": "4", "gnis:feature_id": "304328", "name": "Miami Technical College"}}, {"type": "node", "id": 358729624, "lat": 25.883984, "lon": -80.1953253, "tags": {"amenity": "school", "ele": "3", "gnis:feature_id": "304333", "name": "Von Wedel Gardiner School"}}, {"type": "node", "id": 358729689, "lat": 25.8798174, "lon": -80.1667131, "tags": {"amenity": "school", "ele": "1", "gnis:feature_id": "304352", "name": "Lear School"}}, {"type": "node", "id": 358729700, "lat": 25.8852605, "lon": -80.1321809, "tags": {"amenity": "school", "ele": "1", "gnis:feature_id": "304356", "name": "Bay Harbor School"}}, {"type": "node", "id": 358729712, "lat": 25.9514814, "lon": -80.1561571, "tags": {"amenity": "school", "ele": "3", "gnis:feature_id": "304360", "name": "Saint Lawrence School"}}, {"type": "node", "id": 358729717, "lat": 25.8964837, "lon": -80.2369933, "tags": {"amenity": "school", "ele": "2", "gnis:feature_id": "304361", "name": "Miami Christian College"}}, {"type": "node", "id": 358729757, "lat": 25.9839804, "lon": -80.1964361, "tags": {"amenity": "school", "ele": "2", "gnis:feature_id": "304373", "name": "Atlantis School"}}, {"type": "node", "id": 358729759, "lat": 25.9834249, "lon": -80.1981028, "tags": {"amenity": "school", "ele": "2", "gnis:feature_id": "304374", "name": "Hilltop School"}}, {"type": "node", "id": 358730248, "lat": 25.8728735, "lon": -80.2825502, "tags": {"amenity": "school", "ele": "1", "gnis:feature_id": "304565", "name": "Asbury School"}}, {"type": "node", "id": 358731172, "lat": 25.9229312, "lon": -80.2533569, "tags": {"amenity": "school", "ele": "2", "gnis:feature_id": "305050", "name": "Biscayne College"}}, {"type": "node", "id": 358731175, "lat": 25.9634258, "lon": -80.255327, "tags": {"amenity": "school", "ele": "1", "gnis:feature_id": "305054", "name": "County Line School"}}, {"type": "node", "id": 358731178, "lat": 25.8756513, "lon": -80.3064398, "tags": {"amenity": "school", "ele": "1", "gnis:feature_id": "305055", "name": "Du Puis School"}}, {"type": "node", "id": 358731214, "lat": 25.8900951, "lon": -80.2967172, "tags": {"amenity": "school", "ele": "1", "gnis:feature_id": "305073", "name": "North Twin Lakes School"}}, {"type": "node", "id": 358731261, "lat": 25.9678701, "lon": -80.2600493, "tags": {"amenity": "school", "ele": "2", "gnis:feature_id": "305103", "name": "Mirimar High School"}}, {"type": "node", "id": 358731274, "lat": 25.9031503, "lon": -80.3089397, "tags": {"amenity": "school", "ele": "1", "gnis:feature_id": "305107", "name": "Miami Lakes Elementary School"}}, {"type": "node", "id": 358731296, "lat": 25.9456487, "lon": -80.2622716, "tags": {"amenity": "school", "ele": "1", "gnis:feature_id": "305114", "name": "Carol City Junior High School"}}, {"type": "node", "id": 358731307, "lat": 25.9637035, "lon": -80.255327, "tags": {"amenity": "school", "ele": "1", "gnis:feature_id": "305117", "name": "North County Elementary School"}}, {"type": "node", "id": 358731334, "lat": 25.993147, "lon": -80.2697717, "tags": {"amenity": "school", "ele": "2", "gnis:feature_id": "305128", "name": "Florida Bible Christian School"}}, {"type": "node", "id": 358731348, "lat": 25.9106499, "lon": -80.2572716, "tags": {"amenity": "school", "ele": "1", "gnis:feature_id": "305136", "name": "Parkway Baptist Wee Care Center"}}, {"type": "node", "id": 358731351, "lat": 25.8773178, "lon": -80.2825502, "tags": {"amenity": "school", "ele": "1", "gnis:feature_id": "305137", "name": "Youth Crusade Child Care"}}, {"type": "node", "id": 358731355, "lat": 25.9462041, "lon": -80.2603272, "tags": {"amenity": "school", "ele": "2", "gnis:feature_id": "305138", "name": "Saint Monica School"}}, {"type": "node", "id": 358731358, "lat": 25.8850953, "lon": -80.296995, "tags": {"amenity": "school", "ele": "1", "gnis:feature_id": "305139", "name": "Sharon Christian Academy"}}, {"type": "node", "id": 358731361, "lat": 25.8823176, "lon": -80.295606, "tags": {"amenity": "school", "ele": "1", "gnis:feature_id": "305140", "name": "Roblanca Academy"}}, {"type": "node", "id": 358731365, "lat": 25.8934285, "lon": -80.3108842, "tags": {"amenity": "school", "ele": "1", "gnis:feature_id": "305141", "name": "Nuestra Senora de Lourdes Nursery School"}}, {"type": "node", "id": 358731368, "lat": 25.8837065, "lon": -80.3094953, "tags": {"amenity": "school", "ele": "1", "gnis:feature_id": "305142", "name": "Horeb Christian School"}}, {"type": "node", "id": 358731372, "lat": 25.8906507, "lon": -80.3011618, "tags": {"amenity": "school", "ele": "1", "gnis:feature_id": "305143", "name": "Montessori Childrens House of Miami Lakes"}}, {"type": "node", "id": 358731374, "lat": 25.9128721, "lon": -80.3011617, "tags": {"amenity": "school", "ele": "1", "gnis:feature_id": "305144", "name": "Miami Lakes United Methodist Preschool"}}, {"type": "node", "id": 358731378, "lat": 25.9045392, "lon": -80.3094952, "tags": {"amenity": "school", "ele": "1", "gnis:feature_id": "305145", "name": "Miami Lakes Congregational Church Preschool"}}, {"type": "node", "id": 358731390, "lat": 25.9142609, "lon": -80.2497714, "tags": {"amenity": "school", "ele": "1", "gnis:feature_id": "305146", "name": "Learning School"}}, {"type": "node", "id": 358731399, "lat": 25.8864842, "lon": -80.2997728, "tags": {"amenity": "school", "ele": "1", "gnis:feature_id": "305147", "name": "Happy House School"}}, {"type": "node", "id": 358731407, "lat": 25.9267605, "lon": -80.2636606, "tags": {"amenity": "school", "ele": "2", "gnis:feature_id": "305148", "name": "Jeans Kiddie Kollege"}}, {"type": "node", "id": 358731409, "lat": 25.8753734, "lon": -80.2706054, "tags": {"amenity": "school", "ele": "1", "gnis:feature_id": "305149", "name": "Palm Day School"}}, {"type": "node", "id": 358731427, "lat": 25.9567594, "lon": -80.2800499, "tags": {"amenity": "school", "ele": "1", "gnis:feature_id": "305157", "name": "Landmark Learning Center"}}, {"type": "node", "id": 358731437, "lat": 25.926205, "lon": -80.3061618, "tags": {"amenity": "school", "ele": "2", "gnis:feature_id": "305162", "name": "New Testament Church and School"}}, {"type": "node", "id": 358731441, "lat": 25.9339918, "lon": -80.2924838, "tags": {"amenity": "school", "ele": "1", "gnis:feature_id": "305163", "name": "Iglesias Church and School"}}, {"type": "node", "id": 358731452, "lat": 25.9414821, "lon": -80.2600494, "tags": {"amenity": "school", "ele": "1", "gnis:feature_id": "305166", "name": "North Dade Regional Academy"}}, {"type": "node", "id": 358731470, "lat": 25.916483, "lon": -80.2692163, "tags": {"amenity": "school", "ele": "1", "gnis:feature_id": "305171", "name": "Florida Memorial College", "wikidata": "Q5461515"}}, {"type": "node", "id": 358731473, "lat": 25.9167549, "lon": -80.2583838, "tags": {"amenity": "school", "ele": "1", "gnis:feature_id": "305172", "name": "Marian Center School"}}, {"type": "node", "id": 358731480, "lat": 25.8898175, "lon": -80.3692191, "tags": {"amenity": "school", "ele": "1", "gnis:feature_id": "305174", "name": "Lavenia Bilingual School"}}, {"type": "node", "id": 358734320, "lat": 26.2659132, "lon": -80.259816, "tags": {"amenity": "school", "ele": "3", "gnis:feature_id": "307607", "name": "Saint Andrew Catholic School"}}, {"type": "node", "id": 358734323, "lat": 26.2717476, "lon": -80.2653265, "tags": {"amenity": "school", "ele": "3", "gnis:feature_id": "307608", "name": "Coral Springs Country Day School"}}, {"type": "node", "id": 358734328, "lat": 26.2720254, "lon": -80.2597708, "tags": {"amenity": "school", "ele": "3", "gnis:feature_id": "307609", "name": "University School of Nova University"}}, {"type": "node", "id": 358734331, "lat": 26.2773029, "lon": -80.2664376, "tags": {"amenity": "school", "ele": "3", "gnis:feature_id": "307610", "name": "Coral Springs Alpha Day"}}, {"type": "node", "id": 358735265, "lat": 25.9217925, "lon": -80.2708084}, {"type": "node", "id": 358735460, "lat": 25.9256492, "lon": -80.1992141, "tags": {"amenity": "school", "ele": "3", "gnis:feature_id": "308543", "name": "Nance School"}}, {"type": "node", "id": 358735468, "lat": 25.8987058, "lon": -80.2531049, "tags": {"amenity": "school", "ele": "2", "gnis:feature_id": "308546", "name": "Beacon Hill Center"}}, {"type": "node", "id": 358736879, "lat": 25.8675958, "lon": -80.223104, "tags": {"amenity": "school", "ele": "1", "gnis:feature_id": "310005", "name": "Miami Agricultural School"}}, {"type": "node", "id": 358738217, "lat": 26.1309194, "lon": -80.1872689, "tags": {"amenity": "school", "ele": "1", "gnis:feature_id": "1986231", "name": "Calvin School"}}, {"type": "node", "id": 358738800, "lat": 26.1778386, "lon": -80.1847693, "tags": {"amenity": "school", "ele": "2", "gnis:feature_id": "2043857", "name": "Boyd H. Anderson High School"}}, {"type": "node", "id": 358740751, "lat": 25.8902778, "lon": -80.2338889, "tags": {"amenity": "school", "ele": "3", "gnis:feature_id": "2076803", "name": "Westview Elementary Head Start"}}, {"type": "node", "id": 358740764, "lat": 26.09, "lon": -80.1497222, "tags": {"amenity": "school", "ele": "2", "gnis:feature_id": "2076806", "name": "Whiddon-Rogers Education Center"}}, {"type": "node", "id": 358740771, "lat": 25.9461111, "lon": -80.2538889, "tags": {"amenity": "school", "ele": "2", "gnis:feature_id": "2076811", "name": "William A Kirlew Junior Academy"}}, {"type": "node", "id": 358740775, "lat": 25.8663889, "lon": -80.2291667, "tags": {"amenity": "school", "ele": "1", "gnis:feature_id": "2076812", "name": "William H Turner Adult School"}}, {"type": "node", "id": 358740778, "lat": 25.8730556, "lon": -80.2333333, "tags": {"amenity": "school", "ele": "1", "gnis:feature_id": "2076813", "name": "William H Turner Technical School"}}, {"type": "node", "id": 358740810, "lat": 25.9238889, "lon": -80.1661111, "tags": {"amenity": "school", "ele": "3", "gnis:feature_id": "2076829", "name": "Yale Preschool"}}, {"type": "node", "id": 358740819, "lat": 25.87, "lon": -80.3430556, "tags": {"amenity": "school", "ele": "1", "gnis:feature_id": "2076843", "name": "Youth Cooperative Charter School"}}, {"type": "node", "id": 358740845, "lat": 26.1177778, "lon": -80.3552778, "tags": {"amenity": "school", "ele": "1", "gnis:feature_id": "2076862", "name": "Cypress Bay High School Annex"}}, {"type": "node", "id": 358740856, "lat": 26.205, "lon": -80.24, "tags": {"amenity": "school", "ele": "3", "gnis:feature_id": "2076865", "name": "Western School"}}, {"type": "node", "id": 358740881, "lat": 25.895, "lon": -80.2538889, "tags": {"amenity": "school", "ele": "1", "gnis:feature_id": "2076878", "name": "Vankara School"}}, {"type": "node", "id": 358740885, "lat": 25.8966667, "lon": -80.2547222, "tags": {"amenity": "school", "ele": "1", "gnis:feature_id": "2076879", "name": "Vankara: A Learning Exchange Preschool"}}, {"type": "node", "id": 358740910, "lat": 25.965, "lon": -80.155, "tags": {"amenity": "school", "ele": "1", "gnis:feature_id": "2076890", "name": "Virginia A Boone-Highland Oaks School"}}, {"type": "node", "id": 358740930, "lat": 26.0137959, "lon": -80.3216948, "tags": {"amenity": "school", "ele": "1", "gnis:feature_id": "2076899", "name": "Walter C Young Middle School"}}, {"type": "node", "id": 358740998, "lat": 25.9080556, "lon": -80.3083333, "tags": {"amenity": "school", "ele": "1", "gnis:feature_id": "2076933", "name": "United Lakes Methodist Preschool"}}, {"type": "node", "id": 358741006, "lat": 25.9688889, "lon": -80.2619444, "tags": {"amenity": "school", "ele": "2", "gnis:feature_id": "2076936", "name": "Universal Academy"}}, {"type": "node", "id": 358741034, "lat": 25.8672703, "lon": -80.3255832}, {"type": "node", "id": 358741049, "lat": 25.8844444, "lon": -80.3122222, "tags": {"amenity": "school", "ele": "1", "gnis:feature_id": "2076970", "name": "Three Flags Academy"}}, {"type": "node", "id": 358741064, "lat": 25.9269444, "lon": -80.1788889, "tags": {"amenity": "school", "ele": "4", "gnis:feature_id": "2076977", "name": "Toras Emes Academy of Miami"}}, {"type": "node", "id": 358741109, "lat": 25.9638889, "lon": -80.2441667, "tags": {"amenity": "school", "ele": "1", "gnis:feature_id": "2077009", "name": "The Eddie's B and M Kiddie World Center"}}, {"type": "node", "id": 358741113, "lat": 25.9088889, "lon": -80.3311111, "tags": {"amenity": "school", "ele": "1", "gnis:feature_id": "2077010", "name": "The Enrichment Center"}}, {"type": "node", "id": 358741177, "lat": 25.965, "lon": -80.1419444, "tags": {"amenity": "school", "ele": "2", "gnis:feature_id": "2077057", "name": "Tauber School at Aventura"}}, {"type": "node", "id": 358741185, "lat": 25.8908333, "lon": -80.1541667, "tags": {"amenity": "school", "ele": "0", "gnis:feature_id": "2077061", "name": "Temple Beth Moshe Preschool"}}, {"type": "node", "id": 358741209, "lat": 25.9483333, "lon": -80.1566667, "tags": {"amenity": "school", "ele": "3", "gnis:feature_id": "2077066", "name": "Temple Sinai Preschool"}}, {"type": "node", "id": 358741216, "lat": 25.94, "lon": -80.2669444, "tags": {"amenity": "school", "ele": "1", "gnis:feature_id": "2077068", "name": "Tender Loving Care Preschool II"}}, {"type": "node", "id": 358741229, "lat": 26.0174037, "lon": -80.4267134}, {"type": "node", "id": 358741233, "lat": 25.9616667, "lon": -80.3130556, "tags": {"amenity": "school", "ele": "1", "gnis:feature_id": "2077096", "name": "Somerset Neighborhood School"}}, {"type": "node", "id": 358741308, "lat": 25.8908333, "lon": -80.1669444, "tags": {"amenity": "school", "ele": "1", "gnis:feature_id": "2077144", "name": "Star Bright Preschool"}}, {"type": "node", "id": 358741311, "lat": 25.9055556, "lon": -80.1872222, "tags": {"amenity": "school", "ele": "3", "gnis:feature_id": "2077145", "name": "Star Bright Preschool and Kindergarten"}}, {"type": "node", "id": 358741324, "lat": 26.1444444, "lon": -80.1977778, "tags": {"amenity": "school", "ele": "2", "gnis:feature_id": "2077155", "name": "Smart School Charter Middle School"}}, {"type": "node", "id": 358741327, "lat": 25.8730556, "lon": -80.3311111, "tags": {"amenity": "school", "ele": "1", "gnis:feature_id": "2077160", "name": "Snow White and the Seven Dwarfs School"}}, {"type": "node", "id": 358741330, "lat": 25.965, "lon": -80.15, "tags": {"amenity": "school", "ele": "1", "gnis:feature_id": "2077162", "name": "Solomon Schecter Day School of North Dade"}}, {"type": "node", "id": 358741334, "lat": 26.0151931, "lon": -80.4252345}, {"type": "node", "id": 358741337, "lat": 26.0192756, "lon": -80.4267797}, {"type": "node", "id": 358741346, "lat": 25.9758333, "lon": -80.215, "tags": {"amenity": "school", "ele": "2", "gnis:feature_id": "2077167", "name": "Somerset Academy Davie Charter School"}}, {"type": "node", "id": 358741367, "lat": 25.8730556, "lon": -80.3238889, "tags": {"amenity": "school", "ele": "1", "gnis:feature_id": "2077185", "name": "Shalom Christian School"}}, {"type": "node", "id": 358741370, "lat": 25.8733333, "lon": -80.3322222, "tags": {"amenity": "school", "ele": "1", "gnis:feature_id": "2077190", "name": "Sheppard Primary School"}}, {"type": "node", "id": 358741392, "lat": 25.8875, "lon": -80.3122222, "tags": {"amenity": "school", "ele": "1", "gnis:feature_id": "2077214", "name": "Silvia's School"}}, {"type": "node", "id": 358741395, "lat": 25.9494444, "lon": -80.1558333, "tags": {"amenity": "school", "ele": "0", "gnis:feature_id": "2077215", "name": "Sinai Academy"}}, {"type": "node", "id": 358741398, "lat": 25.9613883, "lon": -80.2773261, "tags": {"amenity": "school", "ele": "1", "gnis:feature_id": "2077220", "name": "Skyway Elementary Head Start"}}, {"type": "node", "id": 358741418, "lat": 25.8811111, "lon": -80.2438889, "tags": {"amenity": "school", "ele": "1", "gnis:feature_id": "2077242", "name": "School for Advanced Studies North"}}, {"type": "node", "id": 358741455, "lat": 25.895, "lon": -80.2088889, "tags": {"amenity": "school", "ele": "4", "gnis:feature_id": "2077276", "name": "Saint James Catholic School"}}, {"type": "node", "id": 358741471, "lat": 25.9161111, "lon": -80.3119444, "tags": {"amenity": "school", "ele": "1", "gnis:feature_id": "2077285", "name": "Saint Margarets Preschool"}}, {"type": "node", "id": 358741488, "lat": 25.97, "lon": -80.2586111, "tags": {"amenity": "school", "ele": "2", "gnis:feature_id": "2077290", "name": "Saint Michael's Preschool"}}, {"type": "node", "id": 358741504, "lat": 25.9216667, "lon": -80.2547222, "tags": {"amenity": "school", "ele": "1", "gnis:feature_id": "2077297", "name": "Saint Thomas University"}}, {"type": "node", "id": 358741510, "lat": 25.8641667, "lon": -80.3163889, "tags": {"amenity": "school", "ele": "2", "gnis:feature_id": "2077299", "name": "Saint Thomas University Villanuva Center"}}, {"type": "node", "id": 358741518, "lat": 25.9502778, "lon": -80.1527778, "tags": {"amenity": "school", "ele": "1", "gnis:feature_id": "2077303", "name": "Samuel Scheck Hillel Community Day School", "wikidata": "Q7412578"}}, {"type": "node", "id": 358741520, "lat": 25.955, "lon": -80.2777778, "tags": {"amenity": "school", "ele": "1", "gnis:feature_id": "2077306", "name": "Sandor Wiener School-Opportunity School"}}, {"type": "node", "id": 358741539, "lat": 25.965, "lon": -80.2397222, "tags": {"amenity": "school", "ele": "1", "gnis:feature_id": "2077315", "name": "Robert Renick Education Center"}}, {"type": "node", "id": 358741543, "lat": 25.8861111, "lon": -80.3069444, "tags": {"amenity": "school", "ele": "1", "gnis:feature_id": "2077316", "name": "Roblanca Academy"}}, {"type": "node", "id": 358741548, "lat": 25.8667903, "lon": -80.3082181, "tags": {"amenity": "school", "ele": "1", "gnis:feature_id": "2077322", "name": "Pooh and Friends Preschool"}}, {"type": "node", "id": 358741562, "lat": 25.8952778, "lon": -80.3605556, "tags": {"amenity": "school", "ele": "1", "fixme": "empty razed lot in latest imagery", "gnis:feature_id": "2077330", "name": "Primary Learning Center B"}}, {"type": "node", "id": 358741564, "lat": 25.9377778, "lon": -80.1691667, "tags": {"amenity": "school", "ele": "3", "gnis:feature_id": "2077331", "name": "Primary Learning Center C"}}, {"type": "node", "id": 358741589, "lat": 25.8955556, "lon": -80.2394444, "tags": {"amenity": "school", "ele": "1", "gnis:feature_id": "2077354", "name": "Rainbow Preparatory School"}}, {"type": "node", "id": 358741623, "lat": 25.8786111, "lon": -80.3263889, "tags": {"amenity": "school", "ele": "1", "gnis:feature_id": "2077401", "name": "Paradise Christian School"}}, {"type": "node", "id": 358741650, "lat": 25.9944444, "lon": -80.3927778, "tags": {"amenity": "school", "ele": "1", "gnis:feature_id": "2077423", "name": "Pembroke Pines Charter Middle School"}}, {"type": "node", "id": 358741656, "lat": 25.9943528, "lon": -80.3940902, "tags": {"amenity": "school", "ele": "1", "gnis:feature_id": "2077425", "name": "Pembroke Pines Elementary Charter School West"}}, {"type": "node", "id": 358741714, "lat": 26.0741667, "lon": -80.2338889, "tags": {"amenity": "school", "ele": "1", "gnis:feature_id": "2077478", "name": "Nova Eisenhower Elementary School"}}, {"type": "node", "id": 358741718, "lat": 25.9294368, "lon": -80.166031, "tags": {"amenity": "school", "ele": "2", "gnis:feature_id": "2077479", "name": "Nova Southeastern University Fischer Center"}}, {"type": "node", "id": 358741720, "lat": 25.8869444, "lon": -80.3072222, "tags": {"amenity": "school", "ele": "1", "gnis:feature_id": "2077480", "name": "Nuestra Senora De Lourdes Nursery School"}}, {"type": "node", "id": 358741746, "lat": 26.0392414, "lon": -80.235738, "tags": {"amenity": "school", "ele": "1", "gnis:feature_id": "2077503", "name": "Once-Upon-A-Time Elementary School"}}, {"type": "node", "id": 358741749, "lat": 25.9058333, "lon": -80.2558333, "tags": {"amenity": "school", "ele": "2", "gnis:feature_id": "2077504", "name": "Opa Locka Head Start"}}, {"type": "node", "id": 358741776, "lat": 25.9173544, "lon": -80.3068622, "tags": {"amenity": "school", "ele": "1", "gnis:feature_id": "2077519", "name": "Our Lady of the Lakes School"}}, {"type": "node", "id": 358741785, "lat": 26.1558333, "lon": -80.1466667, "tags": {"amenity": "school", "ele": "2", "gnis:feature_id": "2077524", "name": "Pace Center for Girls"}}, {"type": "node", "id": 358741818, "lat": 25.9297222, "lon": -80.1655556, "tags": {"amenity": "school", "ele": "2", "gnis:feature_id": "2077542", "name": "Northeast Academy"}}, {"type": "node", "id": 358741821, "lat": 25.9033333, "lon": -80.2402778, "tags": {"amenity": "school", "ele": "1", "gnis:feature_id": "2077547", "name": "Nathan B Young Head Start"}}, {"type": "node", "id": 358741829, "lat": 25.9055227, "lon": -80.1655547, "tags": {"amenity": "school", "ele": "2", "gnis:feature_id": "2077553", "name": "Natural Bridge Head Start"}}, {"type": "node", "id": 358741854, "lat": 25.9530556, "lon": -80.2166667, "tags": {"amenity": "school", "ele": "3", "gnis:feature_id": "2077571", "name": "Norland Methodist Preschool"}}, {"type": "node", "id": 358741861, "lat": 26.2361111, "lon": -80.1094444, "tags": {"amenity": "school", "ele": "4", "gnis:feature_id": "2077574", "name": "North Area Education Center"}}, {"type": "node", "id": 358741864, "lat": 26.2161111, "lon": -80.2202778, "tags": {"amenity": "school", "ele": "3", "gnis:feature_id": "2077579", "name": "North Broward Academy of Excellence"}}, {"type": "node", "id": 358741867, "lat": 25.8961111, "lon": -80.2547222, "tags": {"amenity": "school", "ele": "1", "gnis:feature_id": "2077582", "name": "North Country Charter School"}}, {"type": "node", "id": 358741870, "lat": 25.9161111, "lon": -80.2316667, "tags": {"amenity": "school", "ele": "1", "gnis:feature_id": "2077583", "name": "North Dade Center for Modern Language"}}, {"type": "node", "id": 358741876, "lat": 25.9555784, "lon": -80.2780916, "tags": {"amenity": "school", "ele": "1", "gnis:feature_id": "2077589", "name": "North Dade Regional Academy at Landmark"}}, {"type": "node", "id": 358741879, "lat": 25.8747222, "lon": -80.285, "tags": {"amenity": "school", "ele": "1", "gnis:feature_id": "2077592", "name": "North Hialeah Christian School"}}, {"type": "node", "id": 358741882, "lat": 26.2177778, "lon": -80.2211111, "tags": {"amenity": "school", "ele": "3", "gnis:feature_id": "2077593", "name": "North Lauderdale Academy Charter School"}}, {"type": "node", "id": 358741885, "lat": 25.8997222, "lon": -80.1827778, "tags": {"amenity": "school", "ele": "3", "gnis:feature_id": "2077599", "name": "North Miami Adult School"}}, {"type": "node", "id": 358741923, "lat": 25.8911111, "lon": -80.205, "tags": {"amenity": "school", "ele": "3", "gnis:feature_id": "2077638", "name": "Miami Union Academy"}}, {"type": "node", "id": 358741948, "lat": 26.1647222, "lon": -80.2580556, "tags": {"amenity": "school", "ele": "2", "gnis:feature_id": "2077674", "name": "Moss High School"}}, {"type": "node", "id": 358741955, "lat": 25.8797222, "lon": -80.2011111, "tags": {"amenity": "school", "ele": "3", "gnis:feature_id": "2077692", "name": "Miami Shores Barry University Charter School"}}, {"type": "node", "id": 358741970, "lat": 25.9427778, "lon": -80.2572222, "tags": {"amenity": "school", "ele": "1", "gnis:feature_id": "2077721", "name": "Miami Carol City Adult School"}}, {"type": "node", "id": 358741984, "lat": 25.8780556, "lon": -80.2427778, "tags": {"amenity": "school", "ele": "1", "gnis:feature_id": "2077729", "name": "Miami Dade Community College Preschool"}}, {"type": "node", "id": 358741987, "lat": 25.95, "lon": -80.1975, "tags": {"amenity": "school", "ele": "2", "gnis:feature_id": "2077737", "name": "Miami Gardens Infant and Preschool"}}, {"type": "node", "id": 358741998, "lat": 25.9111111, "lon": -80.3030556, "tags": {"amenity": "school", "ele": "1", "gnis:feature_id": "2077746", "name": "Miami Lakes Christian Academy"}}, {"type": "node", "id": 358742076, "lat": 25.8688246, "lon": -80.3269243}, {"type": "node", "id": 358742080, "lat": 25.8676227, "lon": -80.3262699}, {"type": "node", "id": 358742083, "lat": 25.8688246, "lon": -80.324387}, {"type": "node", "id": 358742185, "lat": 25.8680556, "lon": -80.2319444, "tags": {"amenity": "school", "ele": "1", "gnis:feature_id": "2077894", "name": "Lincoln-Marti School 2nd Campus"}}, {"type": "node", "id": 358742235, "lat": 25.8848992, "lon": -80.3098204, "tags": {"amenity": "school", "ele": "1", "gnis:feature_id": "2077922", "name": "Kids Day Care and Kindergarten"}}, {"type": "node", "id": 358742276, "lat": 25.9930556, "lon": -80.1641667, "tags": {"amenity": "school", "ele": "2", "gnis:feature_id": "2077978", "name": "Lanier-James Education Center"}}, {"type": "node", "id": 358742304, "lat": 25.9447222, "lon": -80.2197222, "tags": {"amenity": "school", "ele": "2", "gnis:feature_id": "2078003", "name": "John F Kennedy Head Start"}}, {"type": "node", "id": 358742373, "lat": 25.8994444, "lon": -80.1858333, "tags": {"amenity": "school", "ele": "2", "gnis:feature_id": "2078079", "name": "Holy Cross Lutheran School"}}, {"type": "node", "id": 358742381, "lat": 25.8844444, "lon": -80.2991667, "tags": {"amenity": "school", "ele": "1", "gnis:feature_id": "2078094", "name": "Horeb Christian School"}}, {"type": "node", "id": 358742423, "lat": 25.965, "lon": -80.18, "tags": {"amenity": "school", "ele": "2", "gnis:feature_id": "2078124", "name": "Ives Dairy Road Christian School"}}, {"type": "node", "id": 358742430, "lat": 25.97, "lon": -80.2619444, "tags": {"amenity": "school", "ele": "2", "gnis:feature_id": "2078126", "name": "J & I Christian Academy 2nd Campus"}}, {"type": "node", "id": 358742437, "lat": 26.1223093, "lon": -80.1591972, "tags": {"amenity": "school", "ele": "1", "gnis:feature_id": "2078130", "name": "Jack and Jill Elementary School"}}, {"type": "node", "id": 358742474, "lat": 25.8913132, "lon": -80.3575797, "tags": {"amenity": "school", "ele": "1", "gnis:feature_id": "2078169", "name": "Hialeah Gardens Primary School"}}, {"type": "node", "id": 358742476, "lat": 25.865343, "lon": -80.2777864, "tags": {"amenity": "school", "ele": "1", "gnis:feature_id": "2078176", "name": "Hialeah Senior High Adult Education Center"}}, {"type": "node", "id": 358742479, "lat": 25.8952778, "lon": -80.3063889, "tags": {"amenity": "school", "ele": "1", "gnis:feature_id": "2078180", "name": "Hialeah-Miami Lakes Adult School"}}, {"type": "node", "id": 358742493, "lat": 25.951249, "lon": -80.151847}, {"type": "node", "id": 358742496, "lat": 26.0101171, "lon": -80.1410685}, {"type": "node", "id": 358742505, "lat": 25.8761111, "lon": -80.3411111, "tags": {"amenity": "school", "ele": "1", "gnis:feature_id": "2078212", "name": "Happy Start Child Care and Kindergarten"}}, {"type": "node", "id": 358742507, "lat": 25.8761111, "lon": -80.3397222, "tags": {"amenity": "school", "ele": "1", "gnis:feature_id": "2078213", "name": "Happy Start Day Care Center and Kindergarten"}}, {"type": "node", "id": 358742530, "lat": 25.8902778, "lon": -80.2047222, "tags": {"amenity": "school", "ele": "3", "gnis:feature_id": "2078243", "name": "Good Shepherd Lutheran Preschool"}}, {"type": "node", "id": 358742598, "lat": 26.005, "lon": -80.3766667, "tags": {"amenity": "school", "ele": "1", "gnis:feature_id": "2078308", "name": "Flanagan High School Annex"}}, {"type": "node", "id": 358742614, "lat": 25.895295, "lon": -80.2454478, "tags": {"amenity": "school", "ele": "1", "gnis:feature_id": "2078317", "name": "Florida International Academy"}}, {"type": "node", "id": 358742642, "lat": 25.8741667, "lon": -80.3088889, "tags": {"amenity": "school", "ele": "1", "gnis:feature_id": "2078343", "name": "Friendship House Cooperative Preschool"}}, {"type": "node", "id": 358742679, "lat": 26.1597222, "lon": -80.2302778, "tags": {"amenity": "school", "ele": "2", "gnis:feature_id": "2078372", "name": "Endeavour Primary Learning Center"}}, {"type": "node", "id": 358742687, "lat": 25.91, "lon": -80.3311111, "tags": {"amenity": "school", "ele": "1", "gnis:feature_id": "2078375", "name": "Enrichment Center of Miami Lakes"}}, {"type": "node", "id": 358742701, "lat": 25.8688889, "lon": -80.2061111, "tags": {"amenity": "school", "ele": "4", "gnis:feature_id": "2078381", "name": "Evangelism for Christ Christian Day School"}}, {"type": "node", "id": 358742806, "lat": 25.8763889, "lon": -80.3063889, "tags": {"amenity": "school", "ele": "2", "gnis:feature_id": "2078481", "name": "Dupuis Elementary Head Start"}}, {"type": "node", "id": 358742808, "lat": 26.1633333, "lon": -80.1911111, "tags": {"amenity": "school", "ele": "2", "gnis:feature_id": "2078482", "name": "Eagle Academy Charter School"}}, {"type": "node", "id": 358742812, "lat": 26.127387, "lon": -80.3995759, "tags": {"amenity": "school", "ele": "3", "gnis:feature_id": "2078483", "name": "Eagle Point Elementary School"}}, {"type": "node", "id": 358742822, "lat": 25.9, "lon": -80.2366667, "tags": {"amenity": "school", "ele": "1", "gnis:feature_id": "2078486", "name": "Earlene Dorsett Academy"}}, {"type": "node", "id": 358742825, "lat": 25.8988889, "lon": -80.2361111, "tags": {"amenity": "school", "ele": "1", "gnis:feature_id": "2078487", "name": "Earlene L Dorsett Academy"}}, {"type": "node", "id": 358742828, "lat": 25.9280556, "lon": -80.2469444, "tags": {"amenity": "school", "ele": "3", "gnis:feature_id": "2078488", "name": "Earlene L Dorsett Academy Annex"}}, {"type": "node", "id": 358742831, "lat": 26.1039942, "lon": -80.1860247, "tags": {"amenity": "school", "ele": "1", "gnis:feature_id": "2078490", "name": "Early Beginning Elementary School"}}, {"type": "node", "id": 358742859, "lat": 25.9269444, "lon": -80.3061111, "tags": {"amenity": "school", "ele": "2", "gnis:feature_id": "2078520", "name": "Dade Christian School", "wikidata": "Q5208039"}}, {"type": "node", "id": 358742879, "lat": 26.2263889, "lon": -80.1347222, "tags": {"amenity": "school", "ele": "2", "gnis:feature_id": "2078540", "name": "Dave Thomas Education Center"}}, {"type": "node", "id": 358742894, "lat": 25.8680556, "lon": -80.2338889, "tags": {"amenity": "school", "ele": "2", "gnis:feature_id": "2078551", "name": "Delta Christian Academy"}}, {"type": "node", "id": 358742897, "lat": 25.8675, "lon": -80.2341667, "tags": {"amenity": "school", "ele": "2", "gnis:feature_id": "2078552", "name": "Delta's Kiddie Academy"}}, {"type": "node", "id": 358742931, "lat": 25.9416788, "lon": -80.2576544, "tags": {"amenity": "school", "ele": "1", "gnis:feature_id": "2078567", "name": "District Instructional Center 17"}}, {"type": "node", "id": 358742934, "lat": 25.9416667, "lon": -80.2577778, "tags": {"amenity": "school", "ele": "1", "gnis:feature_id": "2078568", "name": "District Instructional Center 18"}}, {"type": "node", "id": 358742938, "lat": 25.895, "lon": -80.3072222, "tags": {"amenity": "school", "ele": "1", "gnis:feature_id": "2078569", "name": "District Instructional Center 2"}}, {"type": "node", "id": 358742943, "lat": 25.9522222, "lon": -80.2186111, "tags": {"amenity": "school", "ele": "3", "gnis:feature_id": "2078571", "name": "District Instructional Center 4"}}, {"type": "node", "id": 358742968, "lat": 26.2525, "lon": -80.1547222, "tags": {"amenity": "school", "ele": "4", "gnis:feature_id": "2078592", "name": "Cypress Run Alternative Center"}}, {"type": "node", "id": 358742980, "lat": 25.8652778, "lon": -80.2311111, "tags": {"amenity": "school", "ele": "2", "gnis:feature_id": "2078609", "name": "COPE North Alternative Education School"}}, {"type": "node", "id": 358743040, "lat": 26.1038889, "lon": -80.1947222, "tags": {"amenity": "school", "ele": "4", "gnis:feature_id": "2078659", "name": "College Academy at Broward Community College High S"}}, {"type": "node", "id": 358743050, "lat": 26.1813889, "lon": -80.2036111, "tags": {"amenity": "school", "ele": "3", "gnis:feature_id": "2078669", "name": "Central Charter School"}}, {"type": "node", "id": 358743060, "lat": 26.2086111, "lon": -80.205, "tags": {"amenity": "school", "ele": "3", "gnis:feature_id": "2078676", "name": "Chancellor at North Lauderdale Middle School"}}, {"type": "node", "id": 358743078, "lat": 26.1069444, "lon": -80.14, "tags": {"amenity": "school", "ele": "3", "gnis:feature_id": "2078682", "name": "Charter School of Excellence"}}, {"type": "node", "id": 358743082, "lat": 25.9188889, "lon": -80.2427778, "tags": {"amenity": "school", "ele": "1", "gnis:feature_id": "2078686", "name": "Children Academy"}}, {"type": "node", "id": 358743084, "lat": 25.8697222, "lon": -80.2302778, "tags": {"amenity": "school", "ele": "1", "gnis:feature_id": "2078688", "name": "Children's Academy Number 2"}}, {"type": "node", "id": 358743087, "lat": 25.9013889, "lon": -80.1947222, "tags": {"amenity": "school", "ele": "1", "gnis:feature_id": "2078689", "name": "Children's Academy Preschool"}}, {"type": "node", "id": 358743090, "lat": 25.9239712, "lon": -80.2039877, "tags": {"amenity": "school", "ele": "2", "gnis:feature_id": "2078690", "name": "Children's Academy Preschool Number 2"}}, {"type": "node", "id": 358743125, "lat": 25.885, "lon": -80.3122222, "tags": {"amenity": "school", "ele": "1", "gnis:feature_id": "2078711", "name": "Christ-Mar Kindergarten"}}, {"type": "node", "id": 358743129, "lat": 25.8866667, "lon": -80.3122222, "tags": {"amenity": "school", "ele": "1", "gnis:feature_id": "2078712", "name": "Christ-Mar Private School"}}, {"type": "node", "id": 358743134, "lat": 26.2713889, "lon": -80.2497222, "tags": {"amenity": "school", "ele": "4", "gnis:feature_id": "2078716", "name": "City of Coral Springs Charter School"}}, {"type": "node", "id": 358743151, "lat": 25.8972222, "lon": -80.1938889, "tags": {"amenity": "school", "ele": "1", "gnis:feature_id": "2078725", "name": "Clown Around Preschool"}}, {"type": "node", "id": 358743161, "lat": 26.1433333, "lon": -80.2136111, "tags": {"amenity": "school", "ele": "2", "gnis:feature_id": "2078737", "name": "Castle Hill Elementary School Annex"}}, {"type": "node", "id": 358743167, "lat": 25.8925, "lon": -80.1352778, "tags": {"amenity": "school", "ele": "0", "gnis:feature_id": "2078747", "name": "Blue Lake Point Head Start"}}, {"type": "node", "id": 358743198, "lat": 26.2291667, "lon": -80.105, "tags": {"amenity": "school", "ele": "2", "gnis:feature_id": "2078766", "name": "Broward Children's Center"}}, {"type": "node", "id": 358743202, "lat": 26.2311111, "lon": -80.1038889, "tags": {"amenity": "school", "ele": "2", "gnis:feature_id": "2078767", "name": "Broward Children's Center North"}}, {"type": "node", "id": 358743205, "lat": 26.2335964, "lon": -80.2527766, "tags": {"amenity": "school", "ele": "3", "gnis:feature_id": "2078768", "name": "Broward Community Charter School"}}, {"type": "node", "id": 358743212, "lat": 26.1243951, "lon": -80.170964, "tags": {"amenity": "school", "ele": "2", "gnis:feature_id": "2078772", "name": "Broward Detention Center School"}}, {"type": "node", "id": 358743222, "lat": 25.9206072, "lon": -80.2336836, "tags": {"amenity": "school", "ele": "1", "gnis:feature_id": "2078779", "name": "Bunche Park Elementary Head Start"}}, {"type": "node", "id": 358743244, "lat": 25.8638889, "lon": -80.2380556, "tags": {"amenity": "school", "ele": "2", "gnis:feature_id": "2078802", "name": "Bible Baptist Christian Academy"}}, {"type": "node", "id": 358743256, "lat": 25.9498833, "lon": -80.1362161, "tags": {"addr:city": "Aventura", "addr:housenumber": "3333", "addr:postcode": "33180", "addr:state": "FL", "addr:street": "Northeast 188th Street", "amenity": "school", "ele": "1", "gnis:feature_id": "2078819", "name": "Aventura Charter Elementary School", "website": "https://www.aventuracharter.org/"}}, {"type": "node", "id": 358743261, "lat": 25.9694444, "lon": -80.1477778, "tags": {"amenity": "school", "ele": "1", "gnis:feature_id": "2078823", "name": "Aventura Montessori School"}}, {"type": "node", "id": 358743341, "lat": 25.8727778, "lon": -80.2833333, "tags": {"amenity": "school", "ele": "1", "gnis:feature_id": "2078886", "name": "Asbury Christian School"}}, {"type": "node", "id": 358743353, "lat": 25.897184, "lon": -80.1938859, "tags": {"amenity": "school", "ele": "1", "gnis:feature_id": "2078890", "name": "Aspira Youth Leadership School"}}, {"type": "node", "id": 358743357, "lat": 25.8972222, "lon": -80.1666667, "tags": {"amenity": "school", "ele": "3", "gnis:feature_id": "2078891", "name": "Atlantic International University"}}, {"type": "node", "id": 358743366, "lat": 26.0430556, "lon": -80.1530556, "tags": {"amenity": "school", "ele": "2", "gnis:feature_id": "2078894", "name": "Attucks Middle School"}}, {"type": "node", "id": 358743405, "lat": 25.9330556, "lon": -80.16, "tags": {"amenity": "school", "ele": "3", "gnis:feature_id": "2078926", "name": "Allison Academy"}}, {"type": "node", "id": 358743412, "lat": 26.2636111, "lon": -80.1997222, "tags": {"amenity": "school", "ele": "4", "gnis:feature_id": "2078931", "name": "Alphabet Land-Margate Elementary School"}}, {"type": "node", "id": 358743427, "lat": 25.9348242, "lon": -80.3266793, "tags": {"amenity": "school", "ele": "1", "gnis:feature_id": "2078945", "name": "Apple Tree Montessori Preschool"}}, {"type": "node", "id": 358743430, "lat": 25.9327778, "lon": -80.3266667, "tags": {"amenity": "school", "ele": "1", "gnis:feature_id": "2078946", "name": "Apple Tree Preschool"}}, {"type": "node", "id": 358743437, "lat": 26.1927778, "lon": -80.2872222, "tags": {"amenity": "school", "ele": "3", "gnis:feature_id": "2078949", "name": "Arc Broward School"}}, {"type": "node", "id": 358743450, "lat": 25.8966667, "lon": -80.3080556, "tags": {"amenity": "school", "ele": "1", "gnis:feature_id": "2078961", "name": "A World for Children Montessori School"}}, {"type": "node", "id": 358743453, "lat": 25.863273, "lon": -80.124741, "tags": {"amenity": "school", "ele": "0", "gnis:feature_id": "2078963", "name": "Abbott School and Day Care Center"}}, {"type": "node", "id": 358743459, "lat": 25.8633333, "lon": -80.1247222, "tags": {"amenity": "school", "ele": "0", "gnis:feature_id": "2078965", "name": "Abc A Learning Preschool"}}, {"type": "node", "id": 358751650, "lat": 25.9214, "lon": -80.2555, "tags": {"amenity": "school", "ele": "1", "gnis:feature_id": "2451436", "name": "Bobcat Center"}}, {"type": "node", "id": 358751699, "lat": 25.9204, "lon": -80.2552, "tags": {"amenity": "school", "ele": "1", "gnis:feature_id": "2451451", "name": "Saint Thomas University Sullivan Hall"}}, {"type": "node", "id": 382841583, "lat": 26.1927011, "lon": -80.1298067}, {"type": "node", "id": 382845321, "lat": 26.1422977, "lon": -80.1784939}, {"type": "node", "id": 382845338, "lat": 26.1423801, "lon": -80.1745011}, {"type": "node", "id": 494835459, "lat": 26.1651334, "lon": -80.1241122}, {"type": "node", "id": 494835463, "lat": 26.1650274, "lon": -80.1232821}, {"type": "node", "id": 494835466, "lat": 26.165084, "lon": -80.1231721}, {"type": "node", "id": 494835469, "lat": 26.1649661, "lon": -80.1224126}, {"type": "node", "id": 599810339, "lat": 26.1274522, "lon": -80.1570608}, {"type": "node", "id": 599810340, "lat": 26.1274974, "lon": -80.1547008}, {"type": "node", "id": 599810341, "lat": 26.1258162, "lon": -80.1546502}, {"type": "node", "id": 599810342, "lat": 26.1257728, "lon": -80.1570053}, {"type": "node", "id": 599810368, "lat": 26.1510635, "lon": -80.1746078}, {"type": "node", "id": 599810369, "lat": 26.1510912, "lon": -80.1707012}, {"type": "node", "id": 599810371, "lat": 26.1481635, "lon": -80.1711773}, {"type": "node", "id": 599810372, "lat": 26.1480684, "lon": -80.1745917}, {"type": "node", "id": 599810382, "lat": 26.1440323, "lon": -80.1595379}, {"type": "node", "id": 599810383, "lat": 26.1430929, "lon": -80.1597409}, {"type": "node", "id": 599810384, "lat": 26.1432844, "lon": -80.1597465}, {"type": "node", "id": 599810385, "lat": 26.1432802, "lon": -80.1600053}, {"type": "node", "id": 599810386, "lat": 26.143033, "lon": -80.160441}, {"type": "node", "id": 599810387, "lat": 26.1426985, "lon": -80.1621402}, {"type": "node", "id": 599810388, "lat": 26.1439729, "lon": -80.1621806}, {"type": "node", "id": 602965033, "lat": 26.1409711, "lon": -80.1724988}, {"type": "node", "id": 602965034, "lat": 26.1383644, "lon": -80.1724547}, {"type": "node", "id": 602965036, "lat": 26.1383644, "lon": -80.1783985}, {"type": "node", "id": 610402891, "lat": 26.2058296, "lon": -80.1311442}, {"type": "node", "id": 610402893, "lat": 26.205897, "lon": -80.130935}, {"type": "node", "id": 610402896, "lat": 26.2059499, "lon": -80.1302108}, {"type": "node", "id": 610402899, "lat": 26.205974, "lon": -80.1300123}, {"type": "node", "id": 610402901, "lat": 26.2061365, "lon": -80.1291714}, {"type": "node", "id": 618967965, "lat": 26.1641218, "lon": -80.2286148, "tags": {"addr:housenumber": "5770", "addr:postcode": "33313", "addr:street": "West Oakland Park Boulevard", "amenity": "school", "fixme": "needs better tags, this is really a preschool/daycare", "name": "Greater Horizons Academy", "phone": "954-653-0047"}}, {"type": "node", "id": 619177022, "lat": 26.1513633, "lon": -80.2185668}, {"type": "node", "id": 619177023, "lat": 26.1510501, "lon": -80.2181713}, {"type": "node", "id": 619177024, "lat": 26.1507349, "lon": -80.2184837}, {"type": "node", "id": 619177025, "lat": 26.1506283, "lon": -80.2184811}, {"type": "node", "id": 619177026, "lat": 26.1505481, "lon": -80.2186774}, {"type": "node", "id": 1019463999, "lat": 25.868699, "lon": -80.2325255, "tags": {"amenity": "school", "name": "Lincoln Marti"}}, {"type": "node", "id": 1024137826, "lat": 26.1500315, "lon": -80.1707157}, {"type": "node", "id": 1024137829, "lat": 26.1493766, "lon": -80.1708337}, {"type": "node", "id": 1039689241, "lat": 25.8615257, "lon": -80.2260273, "tags": {"bus": "yes", "gtfs_id": "134", "highway": "bus_stop", "name": "Northwest 17th Avenue @ Northwest 95th Street", "ntd_id": "4034", "operator": "Miami-Dade Transit", "public_transport": "platform", "route_ref": "17"}}, {"type": "node", "id": 1067240495, "lat": 26.2073497, "lon": -80.2383588}, {"type": "node", "id": 1067240585, "lat": 26.2073479, "lon": -80.2399163}, {"type": "node", "id": 1108414948, "lat": 26.0919612, "lon": -80.187139}, {"type": "node", "id": 1108414951, "lat": 26.0919762, "lon": -80.1867506}, {"type": "node", "id": 1108414953, "lat": 26.0920076, "lon": -80.1862611}, {"type": "node", "id": 1108414955, "lat": 26.0920377, "lon": -80.1858883}, {"type": "node", "id": 1108414956, "lat": 26.092069, "lon": -80.1856214}, {"type": "node", "id": 1108414957, "lat": 26.0918425, "lon": -80.1856093}, {"type": "node", "id": 1108414959, "lat": 26.091091, "lon": -80.1855624}, {"type": "node", "id": 1108414960, "lat": 26.0907019, "lon": -80.1855382}, {"type": "node", "id": 1108414973, "lat": 26.0890374, "lon": -80.1854336}, {"type": "node", "id": 1108414974, "lat": 26.0881828, "lon": -80.1854061}, {"type": "node", "id": 1108414975, "lat": 26.0881232, "lon": -80.1858601}, {"type": "node", "id": 1108414976, "lat": 26.0879624, "lon": -80.1867159}, {"type": "node", "id": 1108414977, "lat": 26.0879943, "lon": -80.186886}, {"type": "node", "id": 1108414979, "lat": 26.0886586, "lon": -80.1869331}, {"type": "node", "id": 1108414986, "lat": 26.0903346, "lon": -80.1870215}, {"type": "node", "id": 1108414992, "lat": 26.0911494, "lon": -80.1870885}, {"type": "node", "id": 1108705891, "lat": 26.1027196, "lon": -80.1987638}, {"type": "node", "id": 1108705892, "lat": 26.1027786, "lon": -80.1966046}, {"type": "node", "id": 1108705893, "lat": 26.1019488, "lon": -80.1965643}, {"type": "node", "id": 1108705894, "lat": 26.1007469, "lon": -80.1965094}, {"type": "node", "id": 1108705895, "lat": 26.1006289, "lon": -80.1965858}, {"type": "node", "id": 1108705896, "lat": 26.1005795, "lon": -80.1985934}, {"type": "node", "id": 1108705898, "lat": 26.1006445, "lon": -80.1986699}, {"type": "node", "id": 1109859182, "lat": 26.1510876, "lon": -80.1740553}, {"type": "node", "id": 1109859200, "lat": 26.151072, "lon": -80.1738796}, {"type": "node", "id": 1109859201, "lat": 26.1511815, "lon": -80.1708018}, {"type": "node", "id": 1109944437, "lat": 26.0962238, "lon": -80.1927892}, {"type": "node", "id": 1109944438, "lat": 26.0962852, "lon": -80.1910914}, {"type": "node", "id": 1109944441, "lat": 26.0962984, "lon": -80.1910297}, {"type": "node", "id": 1109944444, "lat": 26.0962575, "lon": -80.1909854}, {"type": "node", "id": 1109944446, "lat": 26.0961768, "lon": -80.1910082}, {"type": "node", "id": 1109944448, "lat": 26.0958938, "lon": -80.1910323}, {"type": "node", "id": 1109944449, "lat": 26.0955842, "lon": -80.1910337}, {"type": "node", "id": 1109944451, "lat": 26.0952036, "lon": -80.1910163}, {"type": "node", "id": 1109944453, "lat": 26.0948194, "lon": -80.1909948}, {"type": "node", "id": 1109944454, "lat": 26.0947448, "lon": -80.1910686}, {"type": "node", "id": 1109944456, "lat": 26.0947195, "lon": -80.1919899}, {"type": "node", "id": 1109944457, "lat": 26.0946918, "lon": -80.192761}, {"type": "node", "id": 1109944460, "lat": 26.0947472, "lon": -80.1928174}, {"type": "node", "id": 1109944464, "lat": 26.095147, "lon": -80.1928308}, {"type": "node", "id": 1109944465, "lat": 26.0955589, "lon": -80.1928469}, {"type": "node", "id": 1109944466, "lat": 26.0961479, "lon": -80.192871}, {"type": "node", "id": 1110048974, "lat": 26.1650551, "lon": -80.1238306}, {"type": "node", "id": 1110058677, "lat": 26.1926762, "lon": -80.1285603}, {"type": "node", "id": 1110058680, "lat": 26.1923837, "lon": -80.1285563}, {"type": "node", "id": 1110058681, "lat": 26.1921972, "lon": -80.1285536}, {"type": "node", "id": 1110058682, "lat": 26.1920023, "lon": -80.1285321}, {"type": "node", "id": 1110058683, "lat": 26.1916773, "lon": -80.1284946}, {"type": "node", "id": 1110058685, "lat": 26.1912995, "lon": -80.1284047}, {"type": "node", "id": 1110058688, "lat": 26.190906, "lon": -80.1283095}, {"type": "node", "id": 1110058690, "lat": 26.1904402, "lon": -80.1282036}, {"type": "node", "id": 1110058694, "lat": 26.1901659, "lon": -80.1281513}, {"type": "node", "id": 1110058695, "lat": 26.1901105, "lon": -80.1281969}, {"type": "node", "id": 1110058697, "lat": 26.1900961, "lon": -80.1288875}, {"type": "node", "id": 1110058698, "lat": 26.1900792, "lon": -80.1294508}, {"type": "node", "id": 1110058699, "lat": 26.1900765, "lon": -80.1296995}, {"type": "node", "id": 1117605245, "lat": 26.261515, "lon": -80.2963975}, {"type": "node", "id": 1117605247, "lat": 26.2615054, "lon": -80.2948257}, {"type": "node", "id": 1117632873, "lat": 26.2741666, "lon": -80.2326655}, {"type": "node", "id": 1117632879, "lat": 26.2737781, "lon": -80.2326642}, {"type": "node", "id": 1117632883, "lat": 26.273142, "lon": -80.2326896}, {"type": "node", "id": 1117632970, "lat": 26.2741846, "lon": -80.2298478}, {"type": "node", "id": 1117632985, "lat": 26.2741293, "lon": -80.2297741}, {"type": "node", "id": 1117632986, "lat": 26.2736651, "lon": -80.2297754}, {"type": "node", "id": 1117632988, "lat": 26.2731726, "lon": -80.2297755}, {"type": "node", "id": 1117632990, "lat": 26.2731759, "lon": -80.2299122}, {"type": "node", "id": 1117632992, "lat": 26.2730927, "lon": -80.2301764}, {"type": "node", "id": 1117632995, "lat": 26.2731083, "lon": -80.2307021}, {"type": "node", "id": 1117633001, "lat": 26.2731215, "lon": -80.2315873}, {"type": "node", "id": 1117633005, "lat": 26.2731348, "lon": -80.2321519}, {"type": "node", "id": 1117633012, "lat": 26.2741593, "lon": -80.2322471}, {"type": "node", "id": 1117633018, "lat": 26.274163, "lon": -80.231999}, {"type": "node", "id": 1117633021, "lat": 26.2741569, "lon": -80.231492}, {"type": "node", "id": 1117633023, "lat": 26.2741618, "lon": -80.2313217}, {"type": "node", "id": 1117633025, "lat": 26.2741918, "lon": -80.2312922}, {"type": "node", "id": 1117633028, "lat": 26.2741834, "lon": -80.2309757}, {"type": "node", "id": 1117633033, "lat": 26.2741894, "lon": -80.2304098}, {"type": "node", "id": 1117633038, "lat": 26.2741858, "lon": -80.2300852}, {"type": "node", "id": 1118304374, "lat": 26.2448754, "lon": -80.1824372}, {"type": "node", "id": 1118304376, "lat": 26.2448498, "lon": -80.1841013}, {"type": "node", "id": 1118304378, "lat": 26.2454735, "lon": -80.1841586}, {"type": "node", "id": 1118304380, "lat": 26.2454453, "lon": -80.1854275}, {"type": "node", "id": 1118304381, "lat": 26.2455419, "lon": -80.1856545}, {"type": "node", "id": 1118304383, "lat": 26.2463214, "lon": -80.1856974}, {"type": "node", "id": 1118304384, "lat": 26.2467832, "lon": -80.1856438}, {"type": "node", "id": 1118304386, "lat": 26.2483644, "lon": -80.1856309}, {"type": "node", "id": 1118304389, "lat": 26.2483642, "lon": -80.182485}, {"type": "node", "id": 1123026213, "lat": 26.0133133, "lon": -80.2191868}, {"type": "node", "id": 1123026214, "lat": 26.0133398, "lon": -80.2181461}, {"type": "node", "id": 1123026229, "lat": 26.014721, "lon": -80.2181729}, {"type": "node", "id": 1123026233, "lat": 26.0147836, "lon": -80.2159949}, {"type": "node", "id": 1123026235, "lat": 26.0128746, "lon": -80.2159091}, {"type": "node", "id": 1123026236, "lat": 26.0113077, "lon": -80.2158555}, {"type": "node", "id": 1123026237, "lat": 26.0101205, "lon": -80.2158354}, {"type": "node", "id": 1123026238, "lat": 26.0101121, "lon": -80.2171}, {"type": "node", "id": 1123026239, "lat": 26.0100687, "lon": -80.2190741}, {"type": "node", "id": 1123026243, "lat": 26.0119489, "lon": -80.2191278}, {"type": "node", "id": 1127995756, "lat": 26.0122924, "lon": -80.1952915}, {"type": "node", "id": 1127995757, "lat": 26.0122687, "lon": -80.1964319}, {"type": "node", "id": 1127995801, "lat": 26.0127767, "lon": -80.194953}, {"type": "node", "id": 1127995804, "lat": 26.0124672, "lon": -80.1952425}, {"type": "node", "id": 1127995805, "lat": 26.0127481, "lon": -80.196759}, {"type": "node", "id": 1127995806, "lat": 26.0125167, "lon": -80.1965122}, {"type": "node", "id": 1127995807, "lat": 26.012401, "lon": -80.1964371}, {"type": "node", "id": 1136502355, "lat": 26.2494894, "lon": -80.1341978}, {"type": "node", "id": 1136502356, "lat": 26.2476106, "lon": -80.1341791}, {"type": "node", "id": 1136502357, "lat": 26.2476358, "lon": -80.1335984}, {"type": "node", "id": 1136502358, "lat": 26.2476515, "lon": -80.1335984}, {"type": "node", "id": 1136502359, "lat": 26.2476719, "lon": -80.1326381}, {"type": "node", "id": 1136502360, "lat": 26.2478367, "lon": -80.1325644}, {"type": "node", "id": 1136502364, "lat": 26.247868, "lon": -80.1325456}, {"type": "node", "id": 1136502365, "lat": 26.24788, "lon": -80.1325161}, {"type": "node", "id": 1136502366, "lat": 26.247886, "lon": -80.1324812}, {"type": "node", "id": 1136502367, "lat": 26.2478944, "lon": -80.1321607}, {"type": "node", "id": 1136502368, "lat": 26.248924, "lon": -80.1321647}, {"type": "node", "id": 1136502369, "lat": 26.2491129, "lon": -80.1321687}, {"type": "node", "id": 1136502370, "lat": 26.2495246, "lon": -80.1321744}, {"type": "node", "id": 1141687834, "lat": 26.2596699, "lon": -80.19456}, {"type": "node", "id": 1141687835, "lat": 26.2596506, "lon": -80.1925537}, {"type": "node", "id": 1141687836, "lat": 26.2583613, "lon": -80.1925108}, {"type": "node", "id": 1141687837, "lat": 26.258039, "lon": -80.1927897}, {"type": "node", "id": 1141687838, "lat": 26.2581112, "lon": -80.1929453}, {"type": "node", "id": 1141687840, "lat": 26.2582017, "lon": -80.1930535}, {"type": "node", "id": 1141687843, "lat": 26.2583132, "lon": -80.1931867}, {"type": "node", "id": 1141687845, "lat": 26.257582, "lon": -80.1938787}, {"type": "node", "id": 1141687847, "lat": 26.2581641, "lon": -80.194973}, {"type": "node", "id": 1141687850, "lat": 26.2585249, "lon": -80.1948014}, {"type": "node", "id": 1141687853, "lat": 26.2587318, "lon": -80.1947102},