{"version": 0.6, "generator": "Overpass API 0.7.62.1 084b4234", "osm3s": {"timestamp_osm_base": "2024-11-19T06:09:43Z", "copyright": "The data included in this document is from www.openstreetmap.org. The data is made available under ODbL."}, "elements": [{"type": "node", "id": 99200119, "lat": 25.7608587, "lon": -80.1370717}, {"type": "node", "id": 99200121, "lat": 25.7607378, "lon": -80.1370862}, {"type": "node", "id": 99200123, "lat": 25.7606516, "lon": -80.1371174}, {"type": "node", "id": 99200127, "lat": 25.7604509, "lon": -80.1372762}, {"type": "node", "id": 99200128, "lat": 25.7603392, "lon": -80.1374427}, {"type": "node", "id": 99266681, "lat": 25.7492688, "lon": -80.3060049, "tags": {"barrier": "gate"}}, {"type": "node", "id": 99336988, "lat": 25.4944379, "lon": -80.4245906}, {"type": "node", "id": 239864751, "lat": 25.7210163, "lon": -80.2427482}, {"type": "node", "id": 239864752, "lat": 25.7217706, "lon": -80.242252}, {"type": "node", "id": 358691120, "lat": 25.7667875, "lon": -80.247152}, {"type": "node", "id": 358691772, "lat": 25.8139866, "lon": -80.2431048, "tags": {"amenity": "school", "ele": "3", "gnis:feature_id": "278579", "name": "Bethune School"}}, {"type": "node", "id": 358692100, "lat": 25.8612069, "lon": -80.1267118, "tags": {"addr:city": "Miami Beach", "addr:housenumber": "800", "addr:postcode": "33141", "addr:state": "FL", "addr:street": "77th Street", "amenity": "school", "ele": "0", "gnis:feature_id": "278856", "name": "Biscayne Beach Elementary School", "phone": "+13058687727", "website": "https://api.dadeschools.net/schoolwebsite/#!/?schoolId=0321"}}, {"type": "node", "id": 358692223, "lat": 25.8116996, "lon": -80.2894024}, {"type": "node", "id": 358692551, "lat": 25.8498187, "lon": -80.2533828, "tags": {"amenity": "school", "ele": "2", "gnis:feature_id": "279423", "name": "Broadmoor School"}}, {"type": "node", "id": 358693244, "lat": 25.7242677, "lon": -80.2592169, "tags": {"amenity": "school", "ele": "4", "gnis:feature_id": "280094", "name": "Carver High School"}}, {"type": "node", "id": 358693697, "lat": 25.7773212, "lon": -80.230049, "tags": {"amenity": "school", "ele": "4", "gnis:feature_id": "280468", "name": "Citrus Grove School"}}, {"type": "node", "id": 358693838, "lat": 25.7284342, "lon": -80.2431052, "tags": {"amenity": "school", "ele": "4", "gnis:feature_id": "280620", "name": "Coconut Grove School"}}, {"type": "node", "id": 358693929, "lat": 25.7992649, "lon": -80.2253266, "tags": {"amenity": "school", "ele": "2", "gnis:feature_id": "280692", "name": "Comstock School"}}, {"type": "node", "id": 358694074, "lat": 25.7473226, "lon": -80.3097736, "tags": {"amenity": "school", "ele": "2", "gnis:feature_id": "280816", "name": "Coral Terrace School"}}, {"type": "node", "id": 358694171, "lat": 25.8067646, "lon": -80.2092148, "tags": {"amenity": "school", "ele": "5", "gnis:feature_id": "280863", "name": "Corpus Christi School"}}, {"type": "node", "id": 358694467, "lat": 25.8123201, "lon": -80.2742168, "tags": {"amenity": "school", "ele": "1", "gnis:feature_id": "281171", "name": "Curtis School"}}, {"type": "node", "id": 358694482, "lat": 25.631771, "lon": -80.3014409, "tags": {"amenity": "school", "ele": "5", "gnis:feature_id": "281184", "name": "Cutler Cove School"}}, {"type": "node", "id": 358694523, "lat": 25.7395449, "lon": -80.2519944, "tags": {"amenity": "school", "ele": "3", "gnis:feature_id": "281256", "name": "Dade School"}}, {"type": "node", "id": 358695000, "lat": 25.7956539, "lon": -80.2033813, "tags": {"amenity": "school", "ele": "5", "gnis:feature_id": "281855", "name": "Dunbar School"}}, {"type": "node", "id": 358695343, "lat": 25.7367675, "lon": -80.3239408, "tags": {"amenity": "school", "ele": "2", "gnis:feature_id": "282198", "name": "Emerson School"}}, {"type": "node", "id": 358695411, "lat": 25.6934355, "lon": -80.2833844, "tags": {"amenity": "school", "ele": "2", "gnis:feature_id": "282239", "name": "Epiphany School"}}, {"type": "node", "id": 358695487, "lat": 25.8437077, "lon": -80.2286599, "tags": {"amenity": "school", "ele": "2", "gnis:feature_id": "282284", "name": "Evans School"}}, {"type": "node", "id": 358695902, "lat": 25.7714883, "lon": -80.2797727, "tags": {"amenity": "school", "ele": "3", "gnis:feature_id": "282548", "name": "Flagler School"}}, {"type": "node", "id": 358695955, "lat": 25.8214864, "lon": -80.2375491, "tags": {"amenity": "school", "ele": "3", "gnis:feature_id": "282609", "name": "Floral Heights School"}}, {"type": "node", "id": 358696802, "lat": 25.805098, "lon": -80.2261599, "tags": {"amenity": "school", "ele": "2", "gnis:feature_id": "283365", "name": "Greater Miami Academy"}}, {"type": "node", "id": 358696965, "lat": 25.7178789, "lon": -80.2522723, "tags": {"amenity": "school", "ele": "5", "gnis:feature_id": "283509", "name": "Gulliver School"}}, {"type": "node", "id": 358697595, "lat": 25.8389857, "lon": -80.2203263, "tags": {"amenity": "school", "ele": "3", "gnis:feature_id": "284205", "name": "Holy Redeemer School"}}, {"type": "node", "id": 358698049, "lat": 25.8100978, "lon": -80.2250487, "tags": {"amenity": "school", "ele": "3", "gnis:feature_id": "284681", "name": "Jackson Junior High School"}}, {"type": "node", "id": 358698236, "lat": 25.8428078, "lon": -80.2967246, "tags": {"amenity": "school", "ele": "3", "gnis:feature_id": "284889", "name": "Johnson School"}}, {"type": "node", "id": 358698429, "lat": 25.7798212, "lon": -80.2428273, "tags": {"amenity": "school", "ele": "5", "gnis:feature_id": "285058", "name": "Kensington Park School"}}, {"type": "node", "id": 358698633, "lat": 25.7420447, "lon": -80.2117151, "tags": {"amenity": "school", "ele": "1", "gnis:feature_id": "285195", "name": "LaSalle High School"}}, {"type": "node", "id": 358698943, "lat": 25.7098238, "lon": -80.2933846, "tags": {"amenity": "school", "ele": "3", "gnis:feature_id": "285430", "name": "Lee School"}}, {"type": "node", "id": 358699015, "lat": 25.8392635, "lon": -80.2286599, "tags": {"amenity": "school", "ele": "3", "gnis:feature_id": "285495", "name": "Liberty City School"}}, {"type": "node", "id": 358699729, "lat": 25.8518864, "lon": -80.252767, "tags": {"amenity": "school", "ele": "2", "gnis:feature_id": "286276", "name": "Madison Junior High School"}}, {"type": "node", "id": 358700260, "lat": 25.7728775, "lon": -80.3739419, "tags": {"amenity": "school", "ele": "2", "gnis:feature_id": "286752", "name": "Miami Christian School", "wikidata": "Q6827287"}}, {"type": "node", "id": 358701970, "lat": 25.8375968, "lon": -80.2161594, "tags": {"amenity": "school", "ele": "3", "gnis:feature_id": "287894", "name": "Northwestern High School"}}, {"type": "node", "id": 358702528, "lat": 25.8275972, "lon": -80.2197707, "tags": {"amenity": "school", "ele": "3", "gnis:feature_id": "288232", "name": "Orchard Villa School"}}, {"type": "node", "id": 358702601, "lat": 25.7831543, "lon": -80.1428238, "tags": {"amenity": "school", "ele": "0", "gnis:feature_id": "288329", "name": "Oxford School"}}, {"type": "node", "id": 358703361, "lat": 25.6803807, "lon": -80.3517195, "tags": {"amenity": "school", "ele": "3", "gnis:feature_id": "288943", "name": "Pinewood Acres School"}}, {"type": "node", "id": 358704818, "lat": 25.7412118, "lon": -80.3367188, "tags": {"amenity": "school", "ele": "2", "gnis:feature_id": "290158", "name": "Saint Brendan School", "wikidata": "Q7587358"}}, {"type": "node", "id": 358704881, "lat": 25.8356525, "lon": -80.2161595, "tags": {"amenity": "school", "ele": "3", "gnis:feature_id": "290186", "name": "Saint Holmes School"}}, {"type": "node", "id": 358705217, "lat": 25.8428744, "lon": -80.2000478, "tags": {"amenity": "school", "ele": "4", "gnis:feature_id": "290311", "name": "Saint Marys School"}}, {"type": "node", "id": 358705261, "lat": 25.7756547, "lon": -80.241716, "tags": {"amenity": "school", "ele": "4", "gnis:feature_id": "290325", "name": "Saint Michaels School"}}, {"type": "node", "id": 358705533, "lat": 25.7270453, "lon": -80.2425497, "tags": {"amenity": "school", "ele": "4", "gnis:feature_id": "290391", "name": "Saint Stephens School"}}, {"type": "node", "id": 358705592, "lat": 25.7598218, "lon": -80.2133818, "tags": {"amenity": "school", "ele": "3", "gnis:feature_id": "290410", "name": "Saints Peter"}}, {"type": "node", "id": 358705809, "lat": 25.8042647, "lon": -80.2125483, "tags": {"amenity": "school", "ele": "3", "gnis:feature_id": "290651", "name": "Santa Clara School"}}, {"type": "node", "id": 358706033, "lat": 25.7684163, "lon": -80.3232917, "tags": {"addr:city": "Miami", "addr:postcode": "33144", "addr:street": "Southwest 78th Place", "amenity": "school", "check_date": "2024-06-08", "ele": "2", "gnis:feature_id": "290844", "name": "Seminole School", "phone": "+1 305-261-7071", "website": "http://seminole.dadeschools.net/"}}, {"type": "node", "id": 358706087, "lat": 25.8209308, "lon": -80.1983811, "tags": {"amenity": "school", "ele": "4", "gnis:feature_id": "290894", "name": "Shadowlawn School"}}, {"type": "node", "id": 358706241, "lat": 25.7543442, "lon": -80.2281837}, {"type": "node", "id": 358706249, "lat": 25.7635454, "lon": -80.2276442}, {"type": "node", "id": 358706419, "lat": 25.7431558, "lon": -80.2356049, "tags": {"amenity": "school", "ele": "3", "gnis:feature_id": "291111", "name": "Silver Bluff School"}}, {"type": "node", "id": 358706948, "lat": 25.753711, "lon": -80.216993, "tags": {"amenity": "school", "ele": "3", "gnis:feature_id": "291457", "name": "Coral Way School"}}, {"type": "node", "id": 358706951, "lat": 25.7617662, "lon": -80.1942144, "tags": {"amenity": "school", "ele": "3", "gnis:feature_id": "291458", "name": "Southside School"}}, {"type": "node", "id": 358707452, "lat": 25.7042684, "lon": -80.2764398, "tags": {"addr:city": "Miami", "addr:housenumber": "5120", "addr:postcode": "33143", "addr:state": "FL", "addr:street": "SW 72nd St", "amenity": "school", "ele": "3", "gnis:feature_id": "291881", "name": "Sunset Elementary School"}}, {"type": "node", "id": 358708422, "lat": 25.6234386, "lon": -80.404499, "tags": {"amenity": "school", "ele": "3", "gnis:feature_id": "292695", "name": "University of Miami"}}, {"type": "node", "id": 358708867, "lat": 25.8498186, "lon": -80.2386602, "tags": {"amenity": "school", "ele": "2", "gnis:feature_id": "293091", "name": "West Little River School"}}, {"type": "node", "id": 358709026, "lat": 25.7934318, "lon": -80.1978256, "tags": {"amenity": "school", "ele": "4", "gnis:feature_id": "293174", "name": "Wheatley School"}}, {"type": "node", "id": 358709255, "lat": 25.773276, "lon": -80.378032, "tags": {"amenity": "school", "ele": "1", "gnis:feature_id": "293474", "name": "Vann Academy"}}, {"type": "node", "id": 358709581, "lat": 25.8378746, "lon": -80.2164373, "tags": {"amenity": "school", "ele": "3", "gnis:feature_id": "293691", "name": "Miami Northwestern Senior High School", "wikidata": "Q6827377", "wikipedia": "en:Miami Northwestern Senior High School"}}, {"type": "node", "id": 358709586, "lat": 25.8356577, "lon": -80.2099938, "tags": {"amenity": "school", "ele": "2", "gnis:feature_id": "293692", "name": "Holmes School"}}, {"type": "node", "id": 358709589, "lat": 25.8356525, "lon": -80.2100481, "tags": {"amenity": "school", "ele": "2", "gnis:feature_id": "293693", "name": "Crowder School"}}, {"type": "node", "id": 358709621, "lat": 25.8603737, "lon": -80.181436, "tags": {"addr:city": "Miami Shores", "addr:housenumber": "9221", "addr:postcode": "33138", "addr:street": "Biscayne Boulevard", "amenity": "school", "ele": "3", "gnis:feature_id": "293702", "name": "Miami Preparatory School"}}, {"type": "node", "id": 358709645, "lat": 25.8564848, "lon": -80.125323, "tags": {"amenity": "school", "ele": "0", "gnis:feature_id": "293711", "name": "Montessori School"}}, {"type": "node", "id": 358709699, "lat": 25.8309304, "lon": -80.1975477, "tags": {"amenity": "school", "ele": "3", "gnis:feature_id": "293729", "name": "Yahweh Education Center"}}, {"type": "node", "id": 358709766, "lat": 25.8114523, "lon": -80.1336791, "tags": {"addr:city": "Miami Beach", "addr:housenumber": "3700", "addr:postcode": "33140", "addr:street": "Garden Avenue", "amenity": "school", "ele": "0", "gnis:feature_id": "293749", "name": "Saint Patricks School", "wikidata": "Q7590997"}}, {"type": "node", "id": 358709770, "lat": 25.8014869, "lon": -80.129212, "tags": {"amenity": "school", "ele": "1", "gnis:feature_id": "293751", "name": "Holtz High School"}}, {"type": "node", "id": 358709795, "lat": 25.7795435, "lon": -80.2386604, "tags": {"amenity": "school", "ele": "4", "gnis:feature_id": "293761", "name": "Champagnat Catholic School", "wikidata": "Q5069873"}}, {"type": "node", "id": 358709802, "lat": 25.7725992, "lon": -80.235327, "tags": {"amenity": "school", "ele": "4", "gnis:feature_id": "293763", "name": "Miami Aerospace Academy"}}, {"type": "node", "id": 358709805, "lat": 25.7659329, "lon": -80.2408827, "tags": {"amenity": "school", "ele": "3", "gnis:feature_id": "293764", "name": "Pan American Institute"}}, {"type": "node", "id": 358709809, "lat": 25.7556554, "lon": -80.2381049, "tags": {"amenity": "school", "ele": "3", "gnis:feature_id": "293765", "name": "Jose Marti School"}}, {"type": "node", "id": 358709820, "lat": 25.7598218, "lon": -80.2136596, "tags": {"amenity": "school", "ele": "3", "gnis:feature_id": "293770", "name": "Saints Peter and Paul School"}}, {"type": "node", "id": 358709969, "lat": 25.586508, "lon": -80.3961431, "tags": {"amenity": "school", "ele": "3", "gnis:feature_id": "293825", "name": "Grace School"}}, {"type": "node", "id": 358709981, "lat": 25.5684405, "lon": -80.3892211, "tags": {"amenity": "school", "ele": "2", "gnis:feature_id": "293830", "name": "Goulds School"}}, {"type": "node", "id": 358710004, "lat": 25.536775, "lon": -80.4081106, "tags": {"amenity": "school", "ele": "3", "gnis:feature_id": "293840", "name": "Nazarene School"}}, {"type": "node", "id": 358712172, "lat": 25.8100978, "lon": -80.2247709, "tags": {"amenity": "school", "ele": "3", "gnis:feature_id": "297482", "name": "Miami Jackson Senior High School", "wikidata": "Q6827341"}}, {"type": "node", "id": 358712195, "lat": 25.7539888, "lon": -80.2578278, "tags": {"amenity": "school", "ele": "3", "gnis:feature_id": "297489", "name": "Coral Gables Elementary School"}}, {"type": "node", "id": 358712199, "lat": 25.757322, "lon": -80.2556054, "tags": {"amenity": "school", "ele": "3", "gnis:feature_id": "297490", "name": "Merrick Special Education Center"}}, {"type": "node", "id": 358712210, "lat": 25.7725993, "lon": -80.2650501, "tags": {"amenity": "school", "ele": "3", "gnis:feature_id": "297493", "name": "Kinloch Park Elementary School"}}, {"type": "node", "id": 358712230, "lat": 25.6297571, "lon": -80.3595342, "tags": {"addr:city": "Miami", "addr:housenumber": "15015", "addr:postcode": "33176", "addr:state": "FL", "addr:street": "Southwest 103rd Avenue", "amenity": "school", "ele": "2", "gnis:feature_id": "297504", "grades": "6-8", "name": "Richmond Heights Junior High School", "phone": "+1-305-238-2316", "website": "https://richmondheightsmiddle.com/"}}, {"type": "node", "id": 358712257, "lat": 25.686502, "lon": -80.3254107}, {"type": "node", "id": 358712268, "lat": 25.7045463, "lon": -80.300607, "tags": {"amenity": "school", "ele": "1", "gnis:feature_id": "297514", "name": "Ludlam Elementary School"}}, {"type": "node", "id": 358712358, "lat": 25.4984433, "lon": -80.4339447, "tags": {"amenity": "school", "ele": "3", "gnis:feature_id": "297575", "name": "Leisure City Elementary School"}}, {"type": "node", "id": 358712401, "lat": 25.5953837, "lon": -80.3497756, "tags": {"amenity": "school", "ele": "2", "gnis:feature_id": "297582", "name": "Perrine Elementary School"}}, {"type": "node", "id": 358712442, "lat": 25.5912173, "lon": -80.3886654, "tags": {"amenity": "school", "ele": "3", "gnis:feature_id": "297594", "name": "South Miami Heights Elementary School"}}, {"type": "node", "id": 358712482, "lat": 25.7309175, "lon": -80.3778792}, {"type": "node", "id": 358712492, "lat": 25.6328825, "lon": -80.3831095, "tags": {"amenity": "school", "ele": "3", "gnis:feature_id": "297609", "name": "South COPE Center"}}, {"type": "node", "id": 358712495, "lat": 25.6783102, "lon": -80.4116902}, {"type": "node", "id": 358712520, "lat": 25.7855256, "lon": -80.1320855}, {"type": "node", "id": 358712522, "lat": 25.8623182, "lon": -80.228382, "tags": {"amenity": "school", "ele": "1", "gnis:feature_id": "297618", "name": "Miami-Douglas MacArthur High School North"}}, {"type": "node", "id": 358712527, "lat": 25.8392635, "lon": -80.2156038, "tags": {"amenity": "school", "ele": "3", "gnis:feature_id": "297620", "name": "Martin Luther King Elementary School"}}, {"type": "node", "id": 358712530, "lat": 25.7884319, "lon": -80.1900476, "tags": {"amenity": "school", "ele": "2", "gnis:feature_id": "297621", "name": "Educational Alternative Program"}}, {"type": "node", "id": 358712539, "lat": 25.7762102, "lon": -80.231438, "tags": {"amenity": "school", "ele": "4", "gnis:feature_id": "297624", "name": "Citrus Grove Occupational Training Center"}}, {"type": "node", "id": 358712541, "lat": 25.8248195, "lon": -80.2256042, "tags": {"amenity": "school", "ele": "4", "gnis:feature_id": "297625", "name": "North COPE Center"}}, {"type": "node", "id": 358712550, "lat": 25.8039871, "lon": -80.2636611, "tags": {"amenity": "school", "check_date": "2023-12-31", "ele": "2", "gnis:feature_id": "297628", "name": "George T Baker Aviation School"}}, {"type": "node", "id": 358712887, "lat": 25.7359339, "lon": -80.2544944, "tags": {"amenity": "school", "ele": "4", "gnis:feature_id": "297749", "name": "Frances S Tucker Elementary School"}}, {"type": "node", "id": 358712891, "lat": 25.653715, "lon": -80.3675535, "tags": {"amenity": "school", "ele": "3", "gnis:feature_id": "297750", "name": "Gloria Floyd Elementary School"}}, {"type": "node", "id": 358712896, "lat": 25.7539887, "lon": -80.216993, "tags": {"amenity": "school", "ele": "3", "gnis:feature_id": "297751", "name": "Coral Way Elementary School", "wikidata": "Q5169516"}}, {"type": "node", "id": 358718947, "lat": 25.7428784, "lon": -80.3381077, "tags": {"amenity": "school", "ele": "2", "gnis:feature_id": "299725", "name": "Saint John Vianney College Seminary", "wikidata": "Q7588924"}}, {"type": "node", "id": 358718950, "lat": 25.7481561, "lon": -80.3631084, "tags": {"amenity": "school", "ele": "1", "gnis:feature_id": "299726", "name": "Loyola College"}}, {"type": "node", "id": 358718954, "lat": 25.7792656, "lon": -80.2269933, "tags": {"amenity": "school", "ele": "2", "gnis:feature_id": "299727", "name": "Martin Technical College"}}, {"type": "node", "id": 358718957, "lat": 25.7803767, "lon": -80.2275489, "tags": {"amenity": "school", "ele": "2", "gnis:feature_id": "299728", "name": "Florida Career College"}}, {"type": "node", "id": 358727409, "lat": 25.8287083, "lon": -80.2194929, "tags": {"amenity": "school", "ele": "3", "gnis:feature_id": "303311", "name": "Interamerican Christian School - Second Campus"}}, {"type": "node", "id": 358727411, "lat": 25.8256528, "lon": -80.2014368, "tags": {"amenity": "school", "ele": "3", "gnis:feature_id": "303312", "name": "Happy Nest Learning Center"}}, {"type": "node", "id": 358727416, "lat": 25.8328748, "lon": -80.2158817, "tags": {"amenity": "school", "ele": "3", "gnis:feature_id": "303313", "name": "Griffins Day Care Nursery School"}}, {"type": "node", "id": 358727419, "lat": 25.8256529, "lon": -80.2375491, "tags": {"amenity": "school", "ele": "3", "gnis:feature_id": "303314", "name": "Golden Slipper School"}}, {"type": "node", "id": 358727422, "lat": 25.8220419, "lon": -80.2236598, "tags": {"amenity": "school", "ele": "4", "gnis:feature_id": "303315", "name": "Centervilla School"}}, {"type": "node", "id": 358727433, "lat": 25.8259309, "lon": -80.3017175, "tags": {"amenity": "school", "ele": "1", "gnis:feature_id": "303318", "name": "Miami Springs Baptist Church Kindergarten"}}, {"type": "node", "id": 358727436, "lat": 25.8217863, "lon": -80.2989465, "tags": {"amenity": "school", "ele": "1", "gnis:feature_id": "303319", "name": "New Beavers Kiddie Kollege"}}, {"type": "node", "id": 358727443, "lat": 25.734823, "lon": -80.3072737, "tags": {"amenity": "school", "ele": "3", "gnis:feature_id": "303321", "name": "Saint Kevin Catholic School"}}, {"type": "node", "id": 358727446, "lat": 25.7464892, "lon": -80.3000512, "tags": {"amenity": "school", "ele": "2", "gnis:feature_id": "303322", "name": "Gladeview Baptist Kindergarten"}}, {"type": "node", "id": 358727450, "lat": 25.7048242, "lon": -80.3392191, "tags": {"amenity": "school", "ele": "2", "gnis:feature_id": "303323", "name": "Filadel Fia Christian School"}}, {"type": "node", "id": 358727454, "lat": 25.7103795, "lon": -80.32783, "tags": {"amenity": "school", "ele": "4", "gnis:feature_id": "303324", "name": "Academy of Arts of Miami"}}, {"type": "node", "id": 358727457, "lat": 25.6764918, "lon": -80.3353304, "tags": {"amenity": "school", "ele": "2", "gnis:feature_id": "303325", "name": "Wayside Baptist Preschool"}}, {"type": "node", "id": 358727460, "lat": 25.6828803, "lon": -80.2961626, "tags": {"amenity": "school", "ele": "2", "gnis:feature_id": "303326", "name": "Village Pines School"}}, {"type": "node", "id": 358727463, "lat": 25.6881579, "lon": -80.295607, "tags": {"amenity": "school", "ele": "2", "gnis:feature_id": "303327", "name": "Second Baptist Church Day Care Center"}}, {"type": "node", "id": 358727469, "lat": 25.679825, "lon": -80.3267189, "tags": {"amenity": "school", "ele": "4", "gnis:feature_id": "303328", "name": "Saint John Neumann Elementary School"}}, {"type": "node", "id": 358727478, "lat": 25.6926021, "lon": -80.2803288, "tags": {"amenity": "school", "ele": "2", "gnis:feature_id": "303329", "name": "Learning Workshop"}}, {"type": "node", "id": 358727487, "lat": 25.668992, "lon": -80.3183855, "tags": {"amenity": "school", "ele": "3", "gnis:feature_id": "303330", "name": "House of Learning"}}, {"type": "node", "id": 358727496, "lat": 25.6889915, "lon": -80.347275, "tags": {"amenity": "school", "ele": "1", "gnis:feature_id": "303331", "name": "Congregation Bet Breira Preschool"}}, {"type": "node", "id": 358727505, "lat": 25.6769965, "lon": -80.3179934, "tags": {"amenity": "school", "ele": "4", "gnis:feature_id": "303332", "name": "Concordia Lutheran Early Childhood Program"}}, {"type": "node", "id": 358727514, "lat": 25.6806582, "lon": -80.3031072, "tags": {"amenity": "school", "ele": "3", "gnis:feature_id": "303334", "name": "Brandeis Academy"}}, {"type": "node", "id": 358727517, "lat": 25.6839915, "lon": -80.3233855, "tags": {"amenity": "school", "ele": "3", "gnis:feature_id": "303335", "name": "Ascension Day Care Center"}}, {"type": "node", "id": 358727520, "lat": 25.6889914, "lon": -80.3319968, "tags": {"amenity": "school", "ele": "2", "gnis:feature_id": "303336", "name": "Academicare Centers"}}, {"type": "node", "id": 358727523, "lat": 25.6542703, "lon": -80.3094965, "tags": {"amenity": "school", "ele": "2", "gnis:feature_id": "303337", "name": "Sunset Christian Academy"}}, {"type": "node", "id": 358727528, "lat": 25.636771, "lon": -80.3344972, "tags": {"amenity": "school", "ele": "4", "gnis:feature_id": "303338", "name": "A Big Childs Place"}}, {"type": "node", "id": 358727531, "lat": 25.6376042, "lon": -80.3094966, "tags": {"amenity": "school", "ele": "3", "gnis:feature_id": "303339", "name": "All My Kids School"}}, {"type": "node", "id": 358727534, "lat": 25.648715, "lon": -80.3314415, "tags": {"amenity": "school", "ele": "3", "gnis:feature_id": "303340", "name": "Camelot School"}}, {"type": "node", "id": 358727538, "lat": 25.6551037, "lon": -80.3433862, "tags": {"amenity": "school", "ele": "3", "gnis:feature_id": "303341", "name": "Childrens Hour Day School"}}, {"type": "node", "id": 358727542, "lat": 25.6426041, "lon": -80.3292192, "tags": {"amenity": "school", "ele": "2", "gnis:feature_id": "303342", "name": "Good Shepherd Day Care Center"}}, {"type": "node", "id": 358727546, "lat": 25.6592701, "lon": -80.3056074, "tags": {"amenity": "school", "ele": "2", "gnis:feature_id": "303343", "name": "Mize School"}}, {"type": "node", "id": 358727549, "lat": 25.6337154, "lon": -80.3169968, "tags": {"amenity": "school", "ele": "2", "gnis:feature_id": "303344", "name": "Mount Olive Lutheran School"}}, {"type": "node", "id": 358727559, "lat": 25.5826062, "lon": -80.3308863, "tags": {"amenity": "school", "ele": "2", "gnis:feature_id": "303346", "name": "Palmetto Community Covenant Preschool"}}, {"type": "node", "id": 358727563, "lat": 25.6051054, "lon": -80.3317195, "tags": {"amenity": "school", "ele": "2", "gnis:feature_id": "303347", "name": "Perrine Baptist Academy"}}, {"type": "node", "id": 358727567, "lat": 25.621216, "lon": -80.3306083, "tags": {"amenity": "school", "ele": "2", "gnis:feature_id": "303348", "name": "Small Fry Day Care Center - Fifth Campus"}}, {"type": "node", "id": 358727573, "lat": 25.5976056, "lon": -80.3222749, "tags": {"amenity": "school", "ele": "4", "gnis:feature_id": "303349", "name": "South Miami Heights Preschool"}}, {"type": "node", "id": 358727577, "lat": 25.6156606, "lon": -80.3150524, "tags": {"amenity": "school", "ele": "2", "gnis:feature_id": "303350", "name": "Westminster Christian School"}}, {"type": "node", "id": 358727580, "lat": 25.6001056, "lon": -80.3353308, "tags": {"amenity": "school", "ele": "1", "gnis:feature_id": "303351", "name": "Winhold Montessori School"}}, {"type": "node", "id": 358727585, "lat": 25.7031575, "lon": -80.3217186, "tags": {"amenity": "school", "ele": "4", "gnis:feature_id": "303352", "name": "A Childs Place"}}, {"type": "node", "id": 358727591, "lat": 25.6987132, "lon": -80.3294967, "tags": {"amenity": "school", "ele": "3", "gnis:feature_id": "303353", "name": "Happi-Tymes Kindergarten"}}, {"type": "node", "id": 358727597, "lat": 25.7153794, "lon": -80.3328301, "tags": {"amenity": "school", "ele": "3", "gnis:feature_id": "303355", "name": "Saint Albans Day Nursery - Second Campus"}}, {"type": "node", "id": 358727605, "lat": 25.7017686, "lon": -80.300607, "tags": {"amenity": "school", "ele": "2", "gnis:feature_id": "303356", "name": "Saint Thomas the Apostle School"}}, {"type": "node", "id": 358727620, "lat": 25.6662143, "lon": -80.31783, "tags": {"amenity": "school", "ele": "3", "gnis:feature_id": "303358", "name": "Sunset Montessori School"}}, {"type": "node", "id": 358727623, "lat": 25.6692697, "lon": -80.2997739, "tags": {"amenity": "school", "ele": "3", "gnis:feature_id": "303359", "name": "Sunshine Cooperative Preschool"}}, {"type": "node", "id": 358727627, "lat": 25.674825, "lon": -80.2903292, "tags": {"amenity": "school", "ele": "3", "gnis:feature_id": "303360", "name": "Trinity Episcopal School"}}, {"type": "node", "id": 358727630, "lat": 25.6639921, "lon": -80.3017184, "tags": {"amenity": "school", "ele": "3", "gnis:feature_id": "303361", "name": "Tropical Christian School"}}, {"type": "node", "id": 358727634, "lat": 25.8567626, "lon": -80.125323, "tags": {"amenity": "school", "ele": "0", "gnis:feature_id": "303362", "name": "Abbott School Day Care"}}, {"type": "node", "id": 358727637, "lat": 25.8414854, "lon": -80.1208784, "tags": {"amenity": "school", "ele": "1", "gnis:feature_id": "303363", "name": "Montessori School of Miami Beach"}}, {"type": "node", "id": 358727646, "lat": 25.8531517, "lon": -80.1522683, "tags": {"amenity": "school", "ele": "0", "gnis:feature_id": "303367", "name": "Toras Emes Academy of Miami - First Campus"}}, {"type": "node", "id": 358727650, "lat": 25.8048202, "lon": -80.1989368, "tags": {"amenity": "school", "ele": "5", "gnis:feature_id": "303368", "name": "ABC Day Care Center"}}, {"type": "node", "id": 358727654, "lat": 25.8003759, "lon": -80.2044925, "tags": {"amenity": "school", "ele": "4", "gnis:feature_id": "303369", "name": "Heritage School"}}, {"type": "node", "id": 358727657, "lat": 25.8078756, "lon": -80.1864363, "tags": {"amenity": "school", "ele": "1", "gnis:feature_id": "303370", "name": "North Shores Child Care Center"}}, {"type": "node", "id": 358727661, "lat": 25.8023203, "lon": -80.2253266, "tags": {"amenity": "school", "ele": "2", "gnis:feature_id": "303371", "name": "Northside Christian Day Care"}}, {"type": "node", "id": 358727669, "lat": 25.80982, "lon": -80.2003257, "tags": {"amenity": "school", "ele": "4", "gnis:feature_id": "303373", "name": "Shores School"}}, {"type": "node", "id": 358727672, "lat": 25.8187086, "lon": -80.1967143, "tags": {"amenity": "school", "ele": "4", "gnis:feature_id": "303374", "name": "Val-Don Day Care Center"}}, {"type": "node", "id": 358727708, "lat": 25.6512147, "lon": -80.2936628, "tags": {"amenity": "school", "ele": "4", "gnis:feature_id": "303384", "name": "Small Fry Day Care - Fourth Campus"}}, {"type": "node", "id": 358727710, "lat": 25.6606589, "lon": -80.2933849, "tags": {"amenity": "school", "ele": "4", "gnis:feature_id": "303385", "name": "McGlannan School and Language Arts Center"}}, {"type": "node", "id": 358727713, "lat": 25.6734364, "lon": -80.3183854, "tags": {"amenity": "school", "ele": "3", "gnis:feature_id": "303386", "name": "Gateway Christian Elementary School"}}, {"type": "node", "id": 358727717, "lat": 25.685658, "lon": -80.2900513, "tags": {"amenity": "school", "ele": "2", "gnis:feature_id": "303387", "name": "A and A Academy South"}}, {"type": "node", "id": 358727846, "lat": 25.8537076, "lon": -80.2931061, "tags": {"amenity": "school", "ele": "1", "gnis:feature_id": "303427", "name": "Faith Lutheran School"}}, {"type": "node", "id": 358727849, "lat": 25.8528743, "lon": -80.2819947, "tags": {"amenity": "school", "ele": "2", "gnis:feature_id": "303428", "name": "Edison Private School - Second Campus"}}, {"type": "node", "id": 358727851, "lat": 25.8575963, "lon": -80.2864393, "tags": {"amenity": "school", "ele": "1", "gnis:feature_id": "303429", "name": "Edison Private School - First Campus"}}, {"type": "node", "id": 358727857, "lat": 25.8606517, "lon": -80.2644942, "tags": {"amenity": "school", "ele": "1", "gnis:feature_id": "303431", "name": "Cinderella School"}}, {"type": "node", "id": 358727859, "lat": 25.8489855, "lon": -80.2697722, "tags": {"amenity": "school", "ele": "1", "gnis:feature_id": "303432", "name": "Champagnat Catholic School of Hialeah"}}, {"type": "node", "id": 358727862, "lat": 25.8553741, "lon": -80.2717166, "tags": {"amenity": "school", "ele": "1", "gnis:feature_id": "303433", "name": "Boulevard Private School"}}, {"type": "node", "id": 358727865, "lat": 25.8425966, "lon": -80.1919919, "tags": {"amenity": "school", "ele": "1", "gnis:feature_id": "303434", "name": "Young Years Day Care"}}, {"type": "node", "id": 358727867, "lat": 25.8362735, "lon": -80.1908369, "tags": {"amenity": "school", "ele": "3", "gnis:feature_id": "303435", "name": "Turners Kindergarten"}}, {"type": "node", "id": 358727870, "lat": 25.8473186, "lon": -80.1753247, "tags": {"amenity": "school", "ele": "0", "gnis:feature_id": "303436", "name": "Tots Town University Child Care Center"}}, {"type": "node", "id": 358727872, "lat": 25.856485, "lon": -80.1794914, "tags": {"amenity": "school", "ele": "2", "gnis:feature_id": "303437", "name": "Tots for Christ School"}}, {"type": "node", "id": 358727876, "lat": 25.8356524, "lon": -80.1864362, "tags": {"amenity": "school", "ele": "3", "gnis:feature_id": "303438", "name": "Thomas Tots Kindergarten"}}, {"type": "node", "id": 358727878, "lat": 25.8450965, "lon": -80.1825472, "tags": {"amenity": "school", "ele": "1", "gnis:feature_id": "303439", "name": "Sparks Kindergarten and Day Care"}}, {"type": "node", "id": 358727880, "lat": 25.8431522, "lon": -80.1869917, "tags": {"amenity": "school", "ele": "3", "gnis:feature_id": "303440", "name": "Small Fry Educational Day Care - Third Campus"}}, {"type": "node", "id": 358727885, "lat": 25.8606515, "lon": -80.1803249, "tags": {"amenity": "school", "ele": "3", "gnis:feature_id": "303441", "name": "Simons Kiddie Kastle Christian Day Care"}}, {"type": "node", "id": 358727887, "lat": 25.8542629, "lon": -80.1833805, "tags": {"amenity": "school", "ele": "2", "gnis:feature_id": "303442", "name": "Saint James Day Care"}}, {"type": "node", "id": 358727892, "lat": 25.8617626, "lon": -80.2014367, "tags": {"amenity": "school", "ele": "3", "gnis:feature_id": "303444", "name": "Patricias Center for Learning"}}, {"type": "node", "id": 358727896, "lat": 25.8595405, "lon": -80.2008811, "tags": {"amenity": "school", "ele": "3", "gnis:feature_id": "303445", "name": "Mizell Kiddie Kampus"}}, {"type": "node", "id": 358727903, "lat": 25.8623181, "lon": -80.2125481, "tags": {"amenity": "school", "ele": "3", "gnis:feature_id": "303448", "name": "Gilberts Angels Nursery Day Care Center"}}, {"type": "node", "id": 358727932, "lat": 25.8120421, "lon": -80.1317121, "tags": {"amenity": "school", "ele": "0", "gnis:feature_id": "303459", "name": "Yale School"}}, {"type": "node", "id": 358727938, "lat": 25.8164863, "lon": -80.1294898, "tags": {"amenity": "school", "ele": "0", "gnis:feature_id": "303461", "name": "North Miami Beach Presbyterian Preschool"}}, {"type": "node", "id": 358727958, "lat": 25.7745436, "lon": -80.2378271, "tags": {"amenity": "school", "ele": "4", "gnis:feature_id": "303466", "name": "Temple Beth Am Day School"}}, {"type": "node", "id": 358727961, "lat": 25.7617663, "lon": -80.2350492, "tags": {"amenity": "school", "ele": "3", "gnis:feature_id": "303467", "name": "Suniland Academy"}}, {"type": "node", "id": 358727964, "lat": 25.7770436, "lon": -80.2386604, "tags": {"amenity": "school", "ele": "4", "gnis:feature_id": "303469", "name": "Saint Thomas Episcopal Parish School"}}, {"type": "node", "id": 358727972, "lat": 25.7595441, "lon": -80.1983813, "tags": {"amenity": "school", "ele": "7", "gnis:feature_id": "303471", "name": "Lingles School and Educational Clinic"}}, {"type": "node", "id": 358727980, "lat": 25.7562109, "lon": -80.2200487, "tags": {"amenity": "school", "ele": "4", "gnis:feature_id": "303474", "name": "Gulliver Preparatory School"}}, {"type": "node", "id": 358727992, "lat": 25.7637106, "lon": -80.1967145, "tags": {"amenity": "school", "ele": "4", "gnis:feature_id": "303477", "name": "Childrens House"}}, {"type": "node", "id": 358727996, "lat": 25.7745436, "lon": -80.190881, "tags": {"amenity": "school", "ele": "3", "gnis:feature_id": "303478", "name": "Cantwell Academy"}}, {"type": "node", "id": 358728061, "lat": 25.6556592, "lon": -80.3169966, "tags": {"amenity": "school", "ele": "3", "gnis:feature_id": "303497", "name": "Conchita Espinosa Academy"}}, {"type": "node", "id": 358728065, "lat": 25.6453816, "lon": -80.2939406, "tags": {"amenity": "school", "ele": "3", "gnis:feature_id": "303498", "name": "Belen Jesuit Preparatory School"}}, {"type": "node", "id": 358728068, "lat": 25.6964909, "lon": -80.2719952, "tags": {"amenity": "school", "ele": "3", "gnis:feature_id": "303499", "name": "Carrollton School of the Sacred Heart"}}, {"type": "node", "id": 358728072, "lat": 25.7170457, "lon": -80.2717172, "tags": {"amenity": "school", "ele": "3", "gnis:feature_id": "303500", "name": "Coconut Grove Christian School"}}, {"type": "node", "id": 358728075, "lat": 25.7156569, "lon": -80.2722729, "tags": {"amenity": "school", "ele": "4", "gnis:feature_id": "303501", "name": "Miami Private School"}}, {"type": "node", "id": 358728079, "lat": 25.7062127, "lon": -80.2722729, "tags": {"amenity": "school", "ele": "3", "gnis:feature_id": "303502", "name": "Montessori International School"}}, {"type": "node", "id": 358728082, "lat": 25.7009352, "lon": -80.2689396, "tags": {"amenity": "school", "ele": "4", "gnis:feature_id": "303503", "name": "Plymouth Preschool of Plymouth Congregational Church"}}, {"type": "node", "id": 358728084, "lat": 25.7209345, "lon": -80.2650504, "tags": {"amenity": "school", "ele": "4", "gnis:feature_id": "303504", "name": "Ransom Everglades School"}}, {"type": "node", "id": 358728088, "lat": 25.7112125, "lon": -80.269495, "tags": {"amenity": "school", "ele": "3", "gnis:feature_id": "303505", "name": "Saint Albans Day Nursery - Main Branch"}}, {"type": "node", "id": 358728092, "lat": 25.7126013, "lon": -80.2583836, "tags": {"amenity": "school", "ele": "4", "gnis:feature_id": "303506", "name": "Saint Hugh School"}}, {"type": "node", "id": 358728095, "lat": 25.7267676, "lon": -80.2622725, "tags": {"amenity": "school", "ele": "3", "gnis:feature_id": "303507", "name": "Vanguard School of Coconut Grove"}}, {"type": "node", "id": 358728099, "lat": 25.8064867, "lon": -80.1400458, "tags": {"amenity": "school", "ele": "0", "gnis:feature_id": "303508", "name": "North Dade Christian School"}}, {"type": "node", "id": 358728105, "lat": 25.8225973, "lon": -80.2025479, "tags": {"amenity": "school", "ele": "4", "gnis:feature_id": "303605", "name": "Saint Lazarus Nursery/Kindergarten School"}}, {"type": "node", "id": 358728109, "lat": 25.8059314, "lon": -80.2206041, "tags": {"amenity": "school", "ele": "3", "gnis:feature_id": "303606", "name": "Kiddie Ranch Nursery and Kindergarten"}}, {"type": "node", "id": 358728112, "lat": 25.7684328, "lon": -80.2539388, "tags": {"amenity": "school", "ele": "4", "gnis:feature_id": "303607", "name": "Grapeland Park Preschool"}}, {"type": "node", "id": 358728116, "lat": 25.8156532, "lon": -80.2164373, "tags": {"amenity": "school", "ele": "5", "gnis:feature_id": "303608", "name": "Easter Seal Demonstration School"}}, {"type": "node", "id": 358728119, "lat": 25.8170421, "lon": -80.2081036, "tags": {"amenity": "school", "ele": "6", "gnis:feature_id": "303609", "name": "Champagnat Catholic School of Miami"}}, {"type": "node", "id": 358728122, "lat": 25.8170909, "lon": -80.2345037, "tags": {"amenity": "school", "ele": "3", "gnis:feature_id": "303610", "name": "Candy House School"}}, {"type": "node", "id": 358728125, "lat": 25.7587107, "lon": -80.1983813, "tags": {"amenity": "school", "ele": "8", "gnis:feature_id": "303611", "name": "Brickell Christian School"}}, {"type": "node", "id": 358728129, "lat": 25.8114867, "lon": -80.2344935, "tags": {"amenity": "school", "ele": "4", "gnis:feature_id": "303612", "name": "Lavernia School"}}, {"type": "node", "id": 358728138, "lat": 25.8600961, "lon": -80.2400491, "tags": {"amenity": "school", "ele": "2", "gnis:feature_id": "303615", "name": "Interamerican Christian School - First Campus"}}, {"type": "node", "id": 358728145, "lat": 25.8198198, "lon": -80.2719945, "tags": {"amenity": "school", "ele": "1", "gnis:feature_id": "303617", "name": "First Baptist Schools"}}, {"type": "node", "id": 358728149, "lat": 25.8403199, "lon": -80.2896696, "tags": {"amenity": "school", "ele": "1", "gnis:feature_id": "303618", "name": "Sunrise Presbyterian Church Preschool"}}, {"type": "node", "id": 358728160, "lat": 25.8564851, "lon": -80.238938, "tags": {"amenity": "school", "ele": "2", "gnis:feature_id": "303622", "name": "Community Outreach Center"}}, {"type": "node", "id": 358728163, "lat": 25.8375969, "lon": -80.2289377, "tags": {"amenity": "school", "ele": "3", "gnis:feature_id": "303623", "name": "Cook Kindergarten"}}, {"type": "node", "id": 358728168, "lat": 25.8409301, "lon": -80.1953254, "tags": {"amenity": "school", "ele": "3", "gnis:feature_id": "303624", "name": "Corpus Christi School"}}, {"type": "node", "id": 358728170, "lat": 25.8384302, "lon": -80.203659, "tags": {"amenity": "school", "ele": "3", "gnis:feature_id": "303625", "name": "Elizabeth E Curtis Child Care Center"}}, {"type": "node", "id": 358728173, "lat": 25.8500964, "lon": -80.2292153, "tags": {"amenity": "school", "ele": "2", "gnis:feature_id": "303626", "name": "First Deliverance Kindergarten"}}, {"type": "node", "id": 358728175, "lat": 25.8300971, "lon": -80.2383824, "tags": {"amenity": "school", "ele": "4", "gnis:feature_id": "303627", "name": "Greater New Bethlehem Kindergarten"}}, {"type": "node", "id": 358728178, "lat": 25.8356525, "lon": -80.2275487, "tags": {"amenity": "school", "ele": "3", "gnis:feature_id": "303628", "name": "Little Skippers Preschool/Kindergarten"}}, {"type": "node", "id": 358728181, "lat": 25.8409301, "lon": -80.2319933, "tags": {"amenity": "school", "ele": "3", "gnis:feature_id": "303629", "name": "Miami Number One Day Care/Church of God of Prophecy"}}, {"type": "node", "id": 358728183, "lat": 25.8450966, "lon": -80.2147705, "tags": {"amenity": "school", "ele": "3", "gnis:feature_id": "303630", "name": "New Antioch Moriah Day Care Center"}}, {"type": "node", "id": 358728185, "lat": 25.8467632, "lon": -80.2264376, "tags": {"amenity": "school", "ele": "3", "gnis:feature_id": "303631", "name": "Sands Small World School"}}, {"type": "node", "id": 358728189, "lat": 25.8528741, "lon": -80.238938, "tags": {"amenity": "school", "ele": "2", "gnis:feature_id": "303632", "name": "Sister Clara Muhammad School"}}, {"type": "node", "id": 358728190, "lat": 25.7800989, "lon": -80.2097705, "tags": {"amenity": "school", "ele": "2", "gnis:feature_id": "303635", "name": "Douglas Park Preschool"}}, {"type": "node", "id": 358728193, "lat": 25.7800989, "lon": -80.2022702, "tags": {"amenity": "school", "ele": "2", "gnis:feature_id": "303636", "name": "Eaton Day Care Center"}}, {"type": "node", "id": 358728195, "lat": 25.7950983, "lon": -80.1925477, "tags": {"amenity": "school", "ele": "3", "gnis:feature_id": "303637", "name": "Holy Cross Day Care Center"}}, {"type": "node", "id": 358728198, "lat": 25.769544, "lon": -80.3056067, "tags": {"amenity": "school", "ele": "1", "gnis:feature_id": "303638", "name": "Arrowhead Nursery and Kindergarten"}}, {"type": "node", "id": 358728201, "lat": 25.7537112, "lon": -80.3042179, "tags": {"amenity": "school", "ele": "2", "gnis:feature_id": "303639", "name": "El Salvador School"}}, {"type": "node", "id": 358728204, "lat": 25.7653775, "lon": -80.3161626, "tags": {"amenity": "school", "ele": "1", "gnis:feature_id": "303640", "name": "Kiddieland Child Care Center"}}, {"type": "node", "id": 358728207, "lat": 25.7609334, "lon": -80.3342186, "tags": {"amenity": "school", "ele": "1", "gnis:feature_id": "303641", "name": "Lincoln Center High School"}}, {"type": "node", "id": 358728212, "lat": 25.7592667, "lon": -80.3314409, "tags": {"amenity": "school", "ele": "1", "gnis:feature_id": "303642", "name": "Seven Dwarfs Nursery School"}}, {"type": "node", "id": 358728215, "lat": 25.7678775, "lon": -80.335052, "tags": {"amenity": "school", "ele": "1", "gnis:feature_id": "303643", "name": "Tamiami Baptist Child Care"}}, {"type": "node", "id": 358728218, "lat": 25.8359305, "lon": -80.2869949, "tags": {"amenity": "school", "ele": "1", "gnis:feature_id": "303644", "name": "Apple Tree Preschool"}}, {"type": "node", "id": 358728221, "lat": 25.85093, "lon": -80.3056064, "tags": {"amenity": "school", "ele": "2", "gnis:feature_id": "303645", "name": "Good Shepherd Lutheran Preschool Center"}}, {"type": "node", "id": 358728225, "lat": 25.793154, "lon": -80.2264377, "tags": {"amenity": "school", "ele": "2", "gnis:feature_id": "303646", "name": "Christ-Mar School"}}, {"type": "node", "id": 358728229, "lat": 25.799265, "lon": -80.2386603, "tags": {"amenity": "school", "ele": "2", "gnis:feature_id": "303647", "name": "Kinderland Preparatory School"}}, {"type": "node", "id": 358728232, "lat": 25.803987, "lon": -80.2467161, "tags": {"amenity": "school", "ele": "1", "gnis:feature_id": "303648", "name": "North Hialeah Baptist Kindergarten"}}, {"type": "node", "id": 358728237, "lat": 25.7837098, "lon": -80.1994923, "tags": {"amenity": "school", "ele": "3", "gnis:feature_id": "303649", "name": "Our Lady of Fatima Nursery School"}}, {"type": "node", "id": 358728239, "lat": 25.8073201, "lon": -80.202548, "tags": {"amenity": "school", "ele": "5", "gnis:feature_id": "303650", "name": "Palm Springs Presbyterian Kindergarten"}}, {"type": "node", "id": 358728242, "lat": 25.7962094, "lon": -80.2258821, "tags": {"amenity": "school", "ele": "2", "gnis:feature_id": "303651", "name": "Paradise Christian School"}}, {"type": "node", "id": 358728246, "lat": 25.8073202, "lon": -80.2350491, "tags": {"amenity": "school", "ele": "2", "gnis:feature_id": "303652", "name": "West Hialeah Baptist Church Kindergarten"}}, {"type": "node", "id": 358728253, "lat": 25.773988, "lon": -80.2211598, "tags": {"amenity": "school", "ele": "2", "gnis:feature_id": "303654", "name": "Boulevard School"}}, {"type": "node", "id": 358728256, "lat": 25.7698215, "lon": -80.2058815, "tags": {"amenity": "school", "ele": "3", "gnis:feature_id": "303655", "name": "Coral Gate Park Preschool"}}, {"type": "node", "id": 358728259, "lat": 25.7689882, "lon": -80.220882, "tags": {"amenity": "school", "ele": "3", "gnis:feature_id": "303656", "name": "Atlantis Academy"}}, {"type": "node", "id": 358728264, "lat": 25.7659328, "lon": -80.2247711, "tags": {"amenity": "school", "ele": "3", "gnis:feature_id": "303657", "name": "Bethel Temple Kindergarten Day Care Center"}}, {"type": "node", "id": 358728270, "lat": 25.7703771, "lon": -80.2439384, "tags": {"amenity": "school", "ele": "3", "gnis:feature_id": "303659", "name": "Miami-Dade Community College Preschool Laboratory"}}, {"type": "node", "id": 358728274, "lat": 25.7634329, "lon": -80.2078261, "tags": {"amenity": "school", "ele": "3", "gnis:feature_id": "303660", "name": "Westview Christian School"}}, {"type": "node", "id": 358728277, "lat": 25.7634329, "lon": -80.2181041, "tags": {"amenity": "school", "ele": "4", "gnis:feature_id": "303661", "name": "Williams Private School"}}, {"type": "node", "id": 358728280, "lat": 25.8100979, "lon": -80.2350491, "tags": {"amenity": "school", "ele": "2", "gnis:feature_id": "303662", "name": "Asbury Christian School"}}, {"type": "node", "id": 358728666, "lat": 25.7712105, "lon": -80.2908841, "tags": {"amenity": "school", "ele": "3", "gnis:feature_id": "303804", "name": "West Flagler Day Care"}}, {"type": "node", "id": 358728668, "lat": 25.7767657, "lon": -80.2150485, "tags": {"amenity": "school", "ele": "2", "gnis:feature_id": "303805", "name": "Wee Lads and Lassies Preschool"}}, {"type": "node", "id": 358728681, "lat": 25.6520482, "lon": -80.3108854, "tags": {"amenity": "school", "ele": "2", "gnis:feature_id": "303809", "name": "Three Cs Nursery"}}, {"type": "node", "id": 358728690, "lat": 25.6337154, "lon": -80.3094966, "tags": {"amenity": "school", "ele": "3", "gnis:feature_id": "303812", "name": "Sunshine South Cooperative Preschool"}}, {"type": "node", "id": 358728693, "lat": 25.7053795, "lon": -80.274773, "tags": {"amenity": "school", "ele": "3", "gnis:feature_id": "303813", "name": "Sunset Preparatory School"}}, {"type": "node", "id": 358728696, "lat": 25.7878764, "lon": -80.2200486, "tags": {"amenity": "school", "ele": "2", "gnis:feature_id": "303814", "name": "Sunny Day School"}}, {"type": "node", "id": 358728701, "lat": 25.5656627, "lon": -80.3858877, "tags": {"amenity": "school", "ele": "3", "gnis:feature_id": "303816", "name": "Silver Palm School"}}, {"type": "node", "id": 358728705, "lat": 25.8489852, "lon": -80.1747691, "tags": {"amenity": "school", "ele": "0", "gnis:feature_id": "303818", "name": "Shores Academy for the Gifted"}}, {"type": "node", "id": 358728710, "lat": 25.8503742, "lon": -80.2358823, "tags": {"amenity": "school", "ele": "2", "gnis:feature_id": "303820", "name": "Seventy-ninth Street Baptist Kindergarten"}}, {"type": "node", "id": 358728720, "lat": 25.7642661, "lon": -80.1956034, "tags": {"amenity": "school", "ele": "3", "gnis:feature_id": "303823", "name": "Saint Faiths Episcopal School"}}, {"type": "node", "id": 358728724, "lat": 25.778187, "lon": -80.2246253, "tags": {"amenity": "school", "ele": "3", "gnis:feature_id": "303824", "name": "Saint Francis Xavier School"}}, {"type": "node", "id": 358728727, "lat": 25.6989643, "lon": -80.163446, "tags": {"amenity": "school", "ele": "1", "gnis:feature_id": "303825", "name": "Saint Christophers by the Sea Montessori School"}}, {"type": "node", "id": 358728737, "lat": 25.8545408, "lon": -80.2303266, "tags": {"amenity": "school", "ele": "2", "gnis:feature_id": "303829", "name": "Rader Kindergarten"}}, {"type": "node", "id": 358728747, "lat": 25.8267639, "lon": -80.2039369, "tags": {"amenity": "school", "ele": "3", "gnis:feature_id": "303832", "name": "Pratts Kindergarten"}}, {"type": "node", "id": 358728750, "lat": 25.6503816, "lon": -80.3261636, "tags": {"amenity": "school", "ele": "3", "gnis:feature_id": "303833", "name": "Pinelands Christian School"}}, {"type": "node", "id": 358728761, "lat": 25.8392636, "lon": -80.2692166, "tags": {"amenity": "school", "ele": "1", "gnis:feature_id": "303834", "name": "Palmetto Christian Academy"}}, {"type": "node", "id": 358728786, "lat": 25.8073201, "lon": -80.2247709, "tags": {"amenity": "school", "ele": "3", "gnis:feature_id": "303838", "name": "Mueller Christian School"}}, {"type": "node", "id": 358728789, "lat": 25.6878807, "lon": -80.4094988, "tags": {"amenity": "school", "ele": "2", "gnis:feature_id": "303839", "name": "Montessori School of Kendall"}}, {"type": "node", "id": 358728791, "lat": 25.8309305, "lon": -80.2192151, "tags": {"amenity": "school", "ele": "3", "gnis:feature_id": "303840", "name": "Johnsons Toddlers University"}}, {"type": "node", "id": 358728796, "lat": 25.8198196, "lon": -80.2025479, "tags": {"amenity": "school", "ele": "5", "gnis:feature_id": "303842", "name": "Jacksons Toddle Inn"}}, {"type": "node", "id": 358728798, "lat": 25.7906541, "lon": -80.2261599, "tags": {"amenity": "school", "ele": "1", "gnis:feature_id": "303843", "name": "Hope Preschool"}}, {"type": "node", "id": 358728801, "lat": 25.7698215, "lon": -80.2219932, "tags": {"amenity": "school", "ele": "3", "gnis:feature_id": "303844", "name": "Hope Center"}}, {"type": "node", "id": 358728805, "lat": 25.8559298, "lon": -80.2928284, "tags": {"amenity": "school", "ele": "1", "gnis:feature_id": "303846", "name": "Hialeah Gardens Academy"}}, {"type": "node", "id": 358728812, "lat": 25.826764, "lon": -80.2442159, "tags": {"amenity": "school", "ele": "3", "gnis:feature_id": "303850", "name": "Mary Poppins Kindergarten"}}, {"type": "node", "id": 358728816, "lat": 25.8059314, "lon": -80.2344935, "tags": {"amenity": "school", "ele": "2", "gnis:feature_id": "303851", "name": "Mary Immaculate Academy"}}, {"type": "node", "id": 358728818, "lat": 25.7781544, "lon": -80.1400459, "tags": {"amenity": "school", "ele": "0", "gnis:feature_id": "303852", "name": "Louis Merwitzer Mesivta High School"}}, {"type": "node", "id": 358728822, "lat": 25.7795433, "lon": -80.1331011, "tags": {"amenity": "school", "ele": "1", "gnis:feature_id": "303853", "name": "Lehrman Day School of Temple Emanu-el"}}, {"type": "node", "id": 358728825, "lat": 25.7989871, "lon": -80.2150484, "tags": {"amenity": "school", "ele": "3", "gnis:feature_id": "303854", "name": "Learning School Number Two"}}, {"type": "node", "id": 358728834, "lat": 25.7725992, "lon": -80.2164375, "tags": {"amenity": "school", "ele": "3", "gnis:feature_id": "303857", "name": "La Luz School"}}, {"type": "node", "id": 358728837, "lat": 25.7087127, "lon": -80.2942179, "tags": {"amenity": "school", "ele": "3", "gnis:feature_id": "303858", "name": "Growing House School"}}, {"type": "node", "id": 358728841, "lat": 25.671214, "lon": -80.2956071, "tags": {"amenity": "school", "ele": "3", "gnis:feature_id": "303859", "name": "Grace Baptist Academy"}}, {"type": "node", "id": 358728844, "lat": 25.7628775, "lon": -80.2914398, "tags": {"amenity": "school", "ele": "3", "gnis:feature_id": "303860", "name": "Ebenezer Day Care and Kindergarten"}}, {"type": "node", "id": 358728851, "lat": 25.7642662, "lon": -80.2150485, "tags": {"amenity": "school", "ele": "4", "gnis:feature_id": "303862", "name": "Debbie School"}}, {"type": "node", "id": 358728854, "lat": 25.6503815, "lon": -80.3122743, "tags": {"amenity": "school", "ele": "2", "gnis:feature_id": "303863", "name": "Cutler Ridge Christian Academy"}}, {"type": "node", "id": 358728857, "lat": 25.7017685, "lon": -80.2817176, "tags": {"amenity": "school", "ele": "2", "gnis:feature_id": "303864", "name": "School House"}}, {"type": "node", "id": 358728860, "lat": 25.6989908, "lon": -80.2858844, "tags": {"amenity": "school", "ele": "2", "gnis:feature_id": "303865", "name": "Playhouse and Biltmore School"}}, {"type": "node", "id": 358728864, "lat": 25.7156569, "lon": -80.2719951, "tags": {"amenity": "school", "ele": "4", "gnis:feature_id": "303866", "name": "New Life Presbyterian Kindergarten/Day Care"}}, {"type": "node", "id": 358728866, "lat": 25.733712, "lon": -80.3372745, "tags": {"amenity": "school", "ele": "2", "gnis:feature_id": "303867", "name": "Little Bird Kindergarten and Day Care"}}, {"type": "node", "id": 358728879, "lat": 25.72399, "lon": -80.2969957, "tags": {"amenity": "school", "ele": "3", "gnis:feature_id": "303871", "name": "Glenn Neal School"}}, {"type": "node", "id": 358728882, "lat": 25.7239899, "lon": -80.2692171, "tags": {"amenity": "school", "ele": "3", "gnis:feature_id": "303872", "name": "Gables Academy of Miami"}}, {"type": "node", "id": 358728885, "lat": 25.7114904, "lon": -80.274773, "tags": {"amenity": "school", "ele": "3", "gnis:feature_id": "303873", "name": "Coral Villa Christian Academy"}}, {"type": "node", "id": 358728890, "lat": 25.6795473, "lon": -80.3325525, "tags": {"amenity": "school", "ele": "4", "gnis:feature_id": "303874", "name": "Saint Agatha School"}}, {"type": "node", "id": 358728892, "lat": 25.6892692, "lon": -80.3358858, "tags": {"amenity": "school", "ele": "2", "gnis:feature_id": "303875", "name": "Individualized Language Academy"}}, {"type": "node", "id": 358728895, "lat": 25.6920467, "lon": -80.2928292, "tags": {"amenity": "school", "ele": "1", "gnis:feature_id": "303876", "name": "Florida Language Institute"}}, {"type": "node", "id": 358728899, "lat": 25.7712105, "lon": -80.2969954, "tags": {"amenity": "school", "ele": "2", "gnis:feature_id": "303877", "name": "Continental Military Institute"}}, {"type": "node", "id": 358728902, "lat": 25.8331528, "lon": -80.2803281, "tags": {"amenity": "school", "ele": "1", "gnis:feature_id": "303878", "name": "Cinderella Day Nursery"}}, {"type": "node", "id": 358729028, "lat": 25.7948569, "lon": -80.1900749, "tags": {"amenity": "school", "ele": "2", "gnis:feature_id": "304133", "name": "YWCA Child Care Center"}}, {"type": "node", "id": 358729035, "lat": 25.7600997, "lon": -80.2636612, "tags": {"amenity": "school", "ele": "3", "gnis:feature_id": "304135", "name": "Yolandas Garden School"}}, {"type": "node", "id": 358729037, "lat": 25.7434338, "lon": -80.2747727, "tags": {"amenity": "school", "ele": "4", "gnis:feature_id": "304136", "name": "Saint Philips Episcopal School"}}, {"type": "node", "id": 358729043, "lat": 25.7351006, "lon": -80.2608835, "tags": {"amenity": "school", "ele": "4", "gnis:feature_id": "304138", "name": "Pelican School"}}, {"type": "node", "id": 358729047, "lat": 25.7239898, "lon": -80.255328, "tags": {"amenity": "school", "ele": "4", "gnis:feature_id": "304139", "name": "Learning Experience School"}}, {"type": "node", "id": 358729054, "lat": 25.7531555, "lon": -80.2372716, "tags": {"amenity": "school", "ele": "4", "gnis:feature_id": "304141", "name": "Its A Small World Preschool"}}, {"type": "node", "id": 358729056, "lat": 25.7392672, "lon": -80.269217, "tags": {"amenity": "school", "ele": "3", "gnis:feature_id": "304142", "name": "Hamel School for Children"}}, {"type": "node", "id": 358729059, "lat": 25.7281564, "lon": -80.2644948, "tags": {"amenity": "school", "ele": "3", "gnis:feature_id": "304143", "name": "Granada Christian"}}, {"type": "node", "id": 358729066, "lat": 25.7656551, "lon": -80.2400494, "tags": {"amenity": "school", "ele": "3", "gnis:feature_id": "304145", "name": "DaVinci Institute"}}, {"type": "node", "id": 358729070, "lat": 25.7725992, "lon": -80.248383, "tags": {"amenity": "school", "ele": "5", "gnis:feature_id": "304146", "name": "Childrens Development Center"}}, {"type": "node", "id": 358729089, "lat": 25.835097, "lon": -80.2428271, "tags": {"amenity": "school", "ele": "3", "gnis:feature_id": "304153", "name": "Centro Hispano Catolico"}}, {"type": "node", "id": 358729093, "lat": 25.8517632, "lon": -80.298384, "tags": {"amenity": "school", "ele": "1", "gnis:feature_id": "304154", "name": "Tiny Tots Day Nursery and Kindergarten"}}, {"type": "node", "id": 358729095, "lat": 25.8600962, "lon": -80.2831058, "tags": {"amenity": "school", "ele": "1", "gnis:feature_id": "304155", "name": "Sunset Heights Baptist School"}}, {"type": "node", "id": 358729099, "lat": 25.8628739, "lon": -80.2844947, "tags": {"amenity": "school", "ele": "1", "gnis:feature_id": "304156", "name": "Saint Luke Kindergarten"}}, {"type": "node", "id": 358729103, "lat": 25.8378747, "lon": -80.2650499, "tags": {"amenity": "school", "ele": "1", "gnis:feature_id": "304157", "name": "Carrousel Day Center"}}, {"type": "node", "id": 358729143, "lat": 25.6698253, "lon": -80.3275524, "tags": {"amenity": "school", "ele": "2", "gnis:feature_id": "304175", "name": "University Christian Academy"}}, {"type": "node", "id": 358729145, "lat": 25.7392673, "lon": -80.2956066, "tags": {"amenity": "school", "ele": "2", "gnis:feature_id": "304176", "name": "Trail to the World Day Care Nursery"}}, {"type": "node", "id": 358729148, "lat": 25.6823249, "lon": -80.3289413, "tags": {"amenity": "school", "ele": "4", "gnis:feature_id": "304177", "name": "Saint Timothy School"}}, {"type": "node", "id": 358729153, "lat": 25.6906578, "lon": -80.2844956, "tags": {"amenity": "school", "ele": "1", "gnis:feature_id": "304179", "name": "Saint Brendan High School"}}, {"type": "node", "id": 358729155, "lat": 25.6823248, "lon": -80.3094963, "tags": {"amenity": "school", "ele": "3", "gnis:feature_id": "304180", "name": "REM Learning Center"}}, {"type": "node", "id": 358729158, "lat": 25.6796178, "lon": -80.2900154, "tags": {"amenity": "school", "ele": "3", "gnis:feature_id": "304181", "name": "Olympia Heights United Methodist Day Care"}}, {"type": "node", "id": 358729160, "lat": 25.6753806, "lon": -80.2997739, "tags": {"amenity": "school", "ele": "2", "gnis:feature_id": "304182", "name": "Noahs Ark Christian Child Care Center"}}, {"type": "node", "id": 358729163, "lat": 25.7337119, "lon": -80.2942177, "tags": {"amenity": "school", "ele": "3", "gnis:feature_id": "304183", "name": "Montessori Childrens House"}}, {"type": "node", "id": 358729165, "lat": 25.7309343, "lon": -80.3011624, "tags": {"amenity": "school", "ele": "2", "gnis:feature_id": "304184", "name": "Kings Christian School"}}, {"type": "node", "id": 358729167, "lat": 25.7656552, "lon": -80.2706058, "tags": {"amenity": "school", "ele": "3", "gnis:feature_id": "304185", "name": "Freedom Christian Academy"}}, {"type": "node", "id": 358729170, "lat": 25.7545447, "lon": -80.3456079, "tags": {"amenity": "school", "ele": "1", "gnis:feature_id": "304186", "name": "Francisco Baldor School"}}, {"type": "node", "id": 358729176, "lat": 25.7545443, "lon": -80.2344937, "tags": {"amenity": "school", "ele": "3", "gnis:feature_id": "304188", "name": "Coral Park Day School/Kindergarten"}}, {"type": "node", "id": 358729179, "lat": 25.7781546, "lon": -80.2539387, "tags": {"amenity": "school", "ele": "3", "gnis:feature_id": "304189", "name": "Concord Christian Academy"}}, {"type": "node", "id": 358729203, "lat": 25.7234343, "lon": -80.2472721, "tags": {"amenity": "school", "ele": "5", "gnis:feature_id": "304199", "name": "Saint Hugh Church and School"}}, {"type": "node", "id": 358729258, "lat": 25.7412114, "lon": -80.2464387, "tags": {"amenity": "school", "ele": "3", "gnis:feature_id": "304221", "name": "Miami Private School"}}, {"type": "node", "id": 358729282, "lat": 25.7387115, "lon": -80.2294936, "tags": {"amenity": "school", "ele": "4", "gnis:feature_id": "304230", "name": "Ransom Everglades Middle School"}}, {"type": "node", "id": 358729775, "lat": 25.7623224, "lon": -80.4058872, "tags": {"amenity": "school", "ele": "1", "gnis:feature_id": "304378", "name": "Conchita Espanosa Academy"}}, {"type": "node", "id": 358729811, "lat": 25.7412541, "lon": -80.3360468, "tags": {"amenity": "school", "ele": "2", "gnis:feature_id": "304394", "name": "Christopher Columbus High School", "wikidata": "Q5112143", "wikipedia": "en:Christopher Columbus High School (Miami)"}}, {"type": "node", "id": 358729824, "lat": 25.7272912, "lon": -80.3666723, "tags": {"amenity": "school", "ele": "1", "gnis:feature_id": "304397", "name": "Westwood Christian School"}}, {"type": "node", "id": 358729866, "lat": 25.717046, "lon": -80.3203297, "tags": {"amenity": "school", "ele": "3", "gnis:feature_id": "304411", "name": "Kendall Academy"}}, {"type": "node", "id": 358729888, "lat": 25.6903845, "lon": -80.3679475}, {"type": "node", "id": 358729947, "lat": 25.6570483, "lon": -80.36422, "tags": {"amenity": "school", "ele": "2", "gnis:feature_id": "304435", "name": "Saint John Neumann School"}}, {"type": "node", "id": 358730012, "lat": 25.7184345, "lon": -80.2517167, "tags": {"amenity": "school", "ele": "5", "gnis:feature_id": "304472", "name": "Vanguard School"}}, {"type": "node", "id": 358730034, "lat": 25.7179931, "lon": -80.2714703, "tags": {"addr:city": "Coral Gables", "addr:housenumber": "5500", "addr:postcode": "33146", "addr:state": "FL", "addr:street": "Miami Homestead Avenue", "amenity": "school", "ele": "3", "gnis:feature_id": "304479", "name": "Temple Judea"}}, {"type": "node", "id": 358730039, "lat": 25.6884357, "lon": -80.2892179, "tags": {"amenity": "school", "ele": "2", "gnis:feature_id": "304481", "name": "Mark Flight Memorial School"}}, {"type": "node", "id": 358730083, "lat": 25.6364931, "lon": -80.3089411, "tags": {"amenity": "school", "ele": "4", "gnis:feature_id": "304496", "name": "Alexander-Montessori School"}}, {"type": "node", "id": 358730125, "lat": 25.7331567, "lon": -80.3806089, "tags": {"amenity": "school", "ele": "1", "gnis:feature_id": "304511", "name": "Briarcliffe College"}}, {"type": "node", "id": 358730192, "lat": 25.6587151, "lon": -80.4189437, "tags": {"amenity": "school", "ele": "1", "gnis:feature_id": "304534", "name": "Boystown of Florida"}}, {"type": "node", "id": 358730196, "lat": 25.6551041, "lon": -80.4100546, "tags": {"amenity": "school", "ele": "2", "gnis:feature_id": "304537", "name": "Heritage School"}}, {"type": "node", "id": 358730258, "lat": 25.8406525, "lon": -80.2808836, "tags": {"amenity": "school", "ele": "1", "gnis:feature_id": "304568", "name": "Edison School"}}, {"type": "node", "id": 358730261, "lat": 25.8378748, "lon": -80.273939, "tags": {"amenity": "school", "ele": "1", "gnis:feature_id": "304570", "name": "Miami Technical College"}}, {"type": "node", "id": 358730300, "lat": 25.7578715, "lon": -80.3668942, "tags": {"amenity": "school", "ele": "1", "gnis:feature_id": "304585", "name": "Saint Agatha School"}}, {"type": "node", "id": 358730353, "lat": 25.7570443, "lon": -80.2558832, "tags": {"amenity": "school", "ele": "3", "gnis:feature_id": "304595", "name": "Merrick School"}}, {"type": "node", "id": 358730360, "lat": 25.7539888, "lon": -80.25755, "tags": {"amenity": "school", "ele": "3", "gnis:feature_id": "304596", "name": "Coral Gables School"}}, {"type": "node", "id": 358735458, "lat": 25.612883, "lon": -80.3447754, "tags": {"amenity": "school", "ele": "4", "gnis:feature_id": "308542", "name": "Our Lady of the Holy Rosary School"}}, {"type": "node", "id": 358735465, "lat": 25.8575961, "lon": -80.2067146, "tags": {"amenity": "school", "ele": "2", "gnis:feature_id": "308545", "name": "Learning Development Center"}}, {"type": "node", "id": 358735519, "lat": 25.7767657, "lon": -80.2233821, "tags": {"amenity": "school", "ele": "3", "gnis:feature_id": "308562", "name": "Shepherd School"}}, {"type": "node", "id": 358735523, "lat": 25.646215, "lon": -80.3136633, "tags": {"amenity": "school", "ele": "3", "gnis:feature_id": "308563", "name": "Grant Center"}}, {"type": "node", "id": 358736907, "lat": 25.839819, "lon": -80.2261598, "tags": {"amenity": "school", "ele": "3", "gnis:feature_id": "310015", "name": "Dorsey Junior High School"}}, {"type": "node", "id": 358736913, "lat": 25.7700992, "lon": -80.2050482, "tags": {"amenity": "school", "ele": "1", "gnis:feature_id": "310017", "name": "Merritt Junior High School"}}, {"type": "node", "id": 358740755, "lat": 25.7269444, "lon": -80.3669444, "tags": {"amenity": "school", "ele": "1", "gnis:feature_id": "2076804", "name": "Westwood Christian Day School Elementary"}}, {"type": "node", "id": 358740800, "lat": 25.6070471, "lon": -80.3112207, "tags": {"amenity": "school", "ele": "3", "gnis:feature_id": "2076821", "name": "Winhold Montessori School"}}, {"type": "node", "id": 358740889, "lat": 25.7758333, "lon": -80.2077778, "tags": {"amenity": "school", "ele": "2", "gnis:feature_id": "2076880", "name": "Vann Academy"}}, {"type": "node", "id": 358740893, "lat": 25.7761111, "lon": -80.2080556, "tags": {"amenity": "school", "ele": "2", "gnis:feature_id": "2076881", "name": "Vann Academy II"}}, {"type": "node", "id": 358740901, "lat": 25.8432455, "lon": -80.2055605, "tags": {"amenity": "school", "ele": "6", "gnis:feature_id": "2076886", "name": "Victory Homes Head Start"}}, {"type": "node", "id": 358740906, "lat": 25.7211111, "lon": -80.3988889, "tags": {"amenity": "school", "ele": "2", "gnis:feature_id": "2076889", "name": "Village Green Christian School"}}, {"type": "node", "id": 358740927, "lat": 25.7333151, "lon": -80.2973927, "tags": {"amenity": "school", "ele": "3", "gnis:feature_id": "2076898", "name": "Wagner Montessori School"}}, {"type": "node", "id": 358740934, "lat": 25.684031, "lon": -80.4178168, "tags": {"amenity": "school", "ele": "2", "gnis:feature_id": "2076901", "name": "Ward Stone College", "note": "This doesn't appear to be here any longer, though I don't want to delete the gnis data without confirmation."}}, {"type": "node", "id": 358740951, "lat": 25.6797222, "lon": -80.3186111, "tags": {"amenity": "school", "ele": "4", "gnis:feature_id": "2076908", "name": "Wayside Baptist Preschool"}}, {"type": "node", "id": 358740976, "lat": 25.7686111, "lon": -80.2933333, "tags": {"amenity": "school", "ele": "2", "gnis:feature_id": "2076922", "name": "West End Park Preschool"}}, {"type": "node", "id": 358740981, "lat": 25.8508333, "lon": -80.2963889, "tags": {"amenity": "school", "ele": "1", "gnis:feature_id": "2076926", "name": "West Hialeah Baptist Kindergarten"}}, {"type": "node", "id": 358740990, "lat": 25.8188889, "lon": -80.2111111, "tags": {"amenity": "school", "ele": "5", "gnis:feature_id": "2076929", "name": "Unification Academy for Learning West"}}, {"type": "node", "id": 358740994, "lat": 25.861084, "lon": -80.2249938, "tags": {"amenity": "school", "ele": "1", "gnis:feature_id": "2076930", "name": "Unification Academy of Learning 1st Campus"}}, {"type": "node", "id": 358741022, "lat": 25.7502778, "lon": -80.3286111, "tags": {"amenity": "school", "ele": "2", "gnis:feature_id": "2076947", "name": "The Learning Tree Day Care Preschool"}}, {"type": "node", "id": 358741026, "lat": 25.8561111, "lon": -80.1791667, "tags": {"amenity": "school", "ele": "2", "gnis:feature_id": "2076949", "name": "The Learning Tree Preschool"}}, {"type": "node", "id": 358741030, "lat": 25.6372222, "lon": -80.3083333, "tags": {"amenity": "school", "ele": "4", "gnis:feature_id": "2076950", "name": "The Little Disciples Preschool"}}, {"type": "node", "id": 358741042, "lat": 25.8558333, "lon": -80.2433333, "tags": {"amenity": "school", "ele": "2", "gnis:feature_id": "2076967", "name": "Thomas Tot Kindergarten and Nursery"}}, {"type": "node", "id": 358741046, "lat": 25.6330556, "lon": -80.3011111, "tags": {"amenity": "school", "ele": "4", "gnis:feature_id": "2076969", "name": "Three Cs Preschool"}}, {"type": "node", "id": 358741089, "lat": 25.7877778, "lon": -80.2111111, "tags": {"amenity": "school", "ele": "4", "gnis:feature_id": "2076992", "name": "Tri Preschool"}}, {"type": "node", "id": 358741092, "lat": 25.7733333, "lon": -80.195, "tags": {"amenity": "school", "ele": "2", "gnis:feature_id": "2076993", "name": "Trinity International University"}}, {"type": "node", "id": 358741095, "lat": 25.7322222, "lon": -80.3663889, "tags": {"amenity": "school", "ele": "1", "gnis:feature_id": "2076994", "name": "Trinity Presbyterian School"}}, {"type": "node", "id": 358741100, "lat": 25.8397222, "lon": -80.2241667, "tags": {"amenity": "school", "ele": "3", "gnis:feature_id": "2076996", "name": "Turner's Kindergarten"}}, {"type": "node", "id": 358741121, "lat": 25.7022222, "lon": -80.3402778, "tags": {"amenity": "school", "ele": "3", "gnis:feature_id": "2077013", "name": "The French American School of Miami Day Care Center"}}, {"type": "node", "id": 358741125, "lat": 25.8338889, "lon": -80.2730556, "tags": {"amenity": "school", "ele": "1", "gnis:feature_id": "2077014", "name": "The Glory of God Christian School"}}, {"type": "node", "id": 358741128, "lat": 25.6663889, "lon": -80.3247222, "tags": {"amenity": "school", "ele": "3", "gnis:feature_id": "2077017", "name": "The Hamel School for Children"}}, {"type": "node", "id": 358741141, "lat": 25.7033333, "lon": -80.3141667, "tags": {"amenity": "school", "ele": "4", "gnis:feature_id": "2077026", "name": "Sunset Montessori School"}}, {"type": "node", "id": 358741154, "lat": 25.7941667, "lon": -80.1416667, "tags": {"amenity": "school", "ele": "1", "gnis:feature_id": "2077042", "name": "Talmudic University"}}, {"type": "node", "id": 358741175, "lat": 25.7661111, "lon": -80.2180556, "tags": {"amenity": "school", "ele": "3", "gnis:feature_id": "2077055", "name": "Tamiami United Methodist Church Elementary School"}}, {"type": "node", "id": 358741183, "lat": 25.8119444, "lon": -80.2744444, "tags": {"amenity": "school", "ele": "2", "gnis:feature_id": "2077060", "name": "Teacher Education Center"}}, {"type": "node", "id": 358741189, "lat": 25.8144788, "lon": -80.1318717, "tags": {"amenity": "school", "ele": "1", "gnis:feature_id": "2077062", "name": "Temple Beth Sholom School", "wikidata": "Q7698483"}}, {"type": "node", "id": 358741198, "lat": 25.860449, "lon": -80.1248011, "tags": {"amenity": "school", "ele": "1", "gnis:feature_id": "2077064", "name": "Temple Menorah Preschool"}}, {"type": "node", "id": 358741245, "lat": 25.8286694, "lon": -80.2837422, "tags": {"amenity": "school", "ele": "1", "gnis:feature_id": "2077105", "name": "South Day Care and Kindergarten"}}, {"type": "node", "id": 358741256, "lat": 25.7077778, "lon": -80.2925, "tags": {"amenity": "school", "ele": "3", "gnis:feature_id": "2077108", "name": "South Miami Head Start"}}, {"type": "node", "id": 358741262, "lat": 25.703105, "lon": -80.3092692, "tags": {"amenity": "school", "ele": "3", "gnis:feature_id": "2077113", "name": "South Miami Lutheran School"}}, {"type": "node", "id": 358741287, "lat": 25.7616667, "lon": -80.1941667, "tags": {"amenity": "school", "ele": "3", "gnis:feature_id": "2077129", "name": "Southside Elementary School"}}, {"type": "node", "id": 358741291, "lat": 25.7216667, "lon": -80.3386111, "tags": {"amenity": "school", "ele": "3", "gnis:feature_id": "2077131", "name": "Southwest Miami Adult School"}}, {"type": "node", "id": 358741301, "lat": 25.7010117, "lon": -80.3949389, "tags": {"amenity": "school", "ele": "2", "gnis:feature_id": "2077137", "name": "Archimedian School"}}, {"type": "node", "id": 358741304, "lat": 25.6744444, "lon": -80.3677778, "tags": {"amenity": "school", "ele": "2", "gnis:feature_id": "2077138", "name": "Spiral Tech Preschool"}}, {"type": "node", "id": 358741320, "lat": 25.7661111, "lon": -80.2411111, "tags": {"amenity": "school", "ele": "3", "gnis:feature_id": "2077153", "name": "Sunflowers Academy"}}, {"type": "node", "id": 358741341, "lat": 25.7987457, "lon": -80.3769376}, {"type": "node", "id": 358741343, "lat": 25.797188, "lon": -80.3769768}, {"type": "node", "id": 358741353, "lat": 25.7502367, "lon": -80.3180613, "tags": {"amenity": "school", "ele": "1", "gnis:feature_id": "2077169", "name": "School House Preschool"}}, {"type": "node", "id": 358741356, "lat": 25.7891667, "lon": -80.19, "tags": {"amenity": "school", "ele": "2", "gnis:feature_id": "2077170", "name": "School of Choice"}}, {"type": "node", "id": 358741372, "lat": 25.8620714, "lon": -80.2065836, "tags": {"amenity": "school", "ele": "3", "gnis:feature_id": "2077204", "name": "Shores School"}}, {"type": "node", "id": 358741402, "lat": 25.8519444, "lon": -80.195, "tags": {"amenity": "school", "ele": "1", "gnis:feature_id": "2077225", "name": "Small People Academy"}}, {"type": "node", "id": 358741422, "lat": 25.6722222, "lon": -80.3761111, "tags": {"amenity": "school", "ele": "2", "gnis:feature_id": "2077243", "name": "School for Advanced Studies South"}}, {"type": "node", "id": 358741430, "lat": 25.7819444, "lon": -80.2022222, "tags": {"amenity": "school", "ele": "3", "gnis:feature_id": "2077248", "name": "Rosa Parks Community School-Overton"}}, {"type": "node", "id": 358741446, "lat": 25.6977778, "lon": -80.3733333, "tags": {"amenity": "school", "ele": "2", "gnis:feature_id": "2077261", "name": "Ruth Owens Kruse Education Center"}}, {"type": "node", "id": 358741449, "lat": 25.8033333, "lon": -80.3327778, "tags": {"addr:city": "Doral", "addr:housenumber": "8360", "addr:postcode": "33122", "addr:state": "FL", "addr:street": "Northwest 33rd Street", "amenity": "school", "ele": "1", "gnis:feature_id": "2077262", "name": "Renaissance Charter Middle School"}}, {"type": "node", "id": 358741465, "lat": 25.6588889, "lon": -80.3119444, "tags": {"amenity": "school", "ele": "2", "gnis:feature_id": "2077282", "name": "Saint Louis Covenant School"}}, {"type": "node", "id": 358741474, "lat": 25.8430556, "lon": -80.2, "tags": {"amenity": "school", "ele": "5", "gnis:feature_id": "2077286", "name": "Saint Mary's Cathedral School", "wikidata": "Q7401805"}}, {"type": "node", "id": 358741478, "lat": 25.7033333, "lon": -80.3138889, "tags": {"amenity": "school", "ele": "3", "gnis:feature_id": "2077287", "name": "Saint Matthew's Cooperative Preschool"}}, {"type": "node", "id": 358741481, "lat": 25.7661111, "lon": -80.2361111, "tags": {"amenity": "school", "ele": "3", "gnis:feature_id": "2077288", "name": "Saint Matthew's Lutheran School"}}, {"type": "node", "id": 358741484, "lat": 25.775, "lon": -80.2419444, "tags": {"amenity": "school", "ele": "4", "gnis:feature_id": "2077289", "name": "Saint Michael the Archangel School"}}, {"type": "node", "id": 358741494, "lat": 25.7152778, "lon": -80.3669444, "tags": {"amenity": "school", "ele": "1", "gnis:feature_id": "2077292", "name": "Saint Paul Lutheran Preschool"}}, {"type": "node", "id": 358741497, "lat": 25.7280556, "lon": -80.2430556, "tags": {"amenity": "school", "ele": "4", "gnis:feature_id": "2077294", "name": "Saint Stephen's Episcopal School"}}, {"type": "node", "id": 358741503, "lat": 25.7341667, "lon": -80.3697222, "tags": {"amenity": "school", "ele": "1", "gnis:feature_id": "2077296", "name": "Saint Thomas Academy"}}, {"type": "node", "id": 358741506, "lat": 25.7413889, "lon": -80.3372222, "tags": {"amenity": "school", "ele": "2", "gnis:feature_id": "2077298", "name": "Saint Thomas University South Dade Center"}}, {"type": "node", "id": 358741514, "lat": 25.76, "lon": -80.2130556, "tags": {"amenity": "school", "ele": "3", "gnis:feature_id": "2077300", "name": "Saints Peter and Paul School"}}, {"type": "node", "id": 358741532, "lat": 25.7060021, "lon": -80.2812395, "tags": {"amenity": "school", "ele": "3", "gnis:feature_id": "2077311", "name": "Riviera Day School"}}, {"type": "node", "id": 358741571, "lat": 25.5369444, "lon": -80.4088889, "tags": {"amenity": "school", "ele": "3", "gnis:feature_id": "2077335", "name": "Princeton Christian School"}}, {"type": "node", "id": 358741574, "lat": 25.7077778, "lon": -80.2902778, "tags": {"amenity": "school", "ele": "3", "gnis:feature_id": "2077336", "name": "Princeton Preschool"}}, {"type": "node", "id": 358741576, "lat": 25.8547865, "lon": -80.2055642, "tags": {"amenity": "school", "ele": "1", "gnis:feature_id": "2077341", "name": "Providence Hope Evangelical Ministry School"}}, {"type": "node", "id": 358741583, "lat": 25.8555355, "lon": -80.1925497, "tags": {"amenity": "school", "ele": "1", "gnis:feature_id": "2077347", "name": "Rader School", "operational_status": "closed"}}, {"type": "node", "id": 358741586, "lat": 25.8466667, "lon": -80.2841667, "tags": {"amenity": "school", "ele": "1", "gnis:feature_id": "2077349", "name": "Rainbow Christian School"}}, {"type": "node", "id": 358741601, "lat": 25.7222222, "lon": -80.2483333, "tags": {"amenity": "school", "ele": "6", "gnis:feature_id": "2077388", "name": "Plymouth Preschool of Plymouth Congregational Church"}}, {"type": "node", "id": 358741607, "lat": 25.6188889, "lon": -80.3602778, "tags": {"amenity": "school", "ele": "3", "gnis:feature_id": "2077394", "name": "Palmetto Community Covenant Preschool"}}, {"type": "node", "id": 358741610, "lat": 25.7179214, "lon": -80.3038678, "tags": {"amenity": "school", "ele": "4", "gnis:feature_id": "2077396", "name": "Palmetto Presbyterian Preschool"}}, {"type": "node", "id": 358741669, "lat": 25.6037033, "lon": -80.354565, "tags": {"amenity": "school", "ele": "3", "gnis:feature_id": "2077436", "name": "Perrine Head Start"}}, {"type": "node", "id": 358741672, "lat": 25.6080556, "lon": -80.3480556, "tags": {"amenity": "school", "ele": "4", "gnis:feature_id": "2077437", "name": "Perrine Seventh Day Adventist School"}}, {"type": "node", "id": 358741689, "lat": 25.7295316, "lon": -80.4263044, "tags": {"amenity": "school", "ele": "1", "gnis:feature_id": "2077451", "name": "Pinecrest Preparatory Academy"}}, {"type": "node", "id": 358741737, "lat": 25.8255556, "lon": -80.2308333, "tags": {"amenity": "school", "ele": "4", "gnis:feature_id": "2077497", "name": "Olinda Head Start"}}, {"type": "node", "id": 358741740, "lat": 25.7341959, "lon": -80.3513962, "tags": {"amenity": "school", "ele": "2", "gnis:feature_id": "2077499", "name": "Olympia Heights United Methodist Kindergarten and Day Care Center"}}, {"type": "node", "id": 358741760, "lat": 25.8277778, "lon": -80.2186111, "tags": {"amenity": "school", "ele": "3", "gnis:feature_id": "2077513", "name": "Orchard Villa Headstart"}}, {"type": "node", "id": 358741763, "lat": 25.8619444, "lon": -80.3211111, "tags": {"amenity": "school", "ele": "2", "gnis:feature_id": "2077515", "name": "Our Lady of Charity Private School"}}, {"type": "node", "id": 358741766, "lat": 25.77, "lon": -80.3619444, "tags": {"amenity": "school", "ele": "1", "gnis:feature_id": "2077516", "name": "Our Lady of Divine Providence School"}}, {"type": "node", "id": 358741769, "lat": 25.7502778, "lon": -80.2438889, "tags": {"amenity": "school", "ele": "2", "gnis:feature_id": "2077517", "name": "Our Lady of Fatima Academy"}}, {"type": "node", "id": 358741772, "lat": 25.6930556, "lon": -80.2830556, "tags": {"amenity": "school", "ele": "2", "gnis:feature_id": "2077518", "name": "Our Lady of Lourdes Academy", "wikidata": "Q7110846"}}, {"type": "node", "id": 358741781, "lat": 25.6806436, "lon": -80.3678387, "tags": {"amenity": "school", "ele": "2", "gnis:feature_id": "2077521", "name": "Our Lady of the Rosary School"}}, {"type": "node", "id": 358741788, "lat": 25.7169444, "lon": -80.3230556, "tags": {"amenity": "school", "ele": "3", "gnis:feature_id": "2077526", "name": "Paladin Academy"}}, {"type": "node", "id": 358741840, "lat": 25.7622222, "lon": -80.3275, "tags": {"amenity": "school", "ele": "1", "gnis:feature_id": "2077560", "name": "New Horizons Preschool"}}, {"type": "node", "id": 358741845, "lat": 25.7772222, "lon": -80.1911111, "tags": {"amenity": "school", "ele": "3", "gnis:feature_id": "2077566", "name": "New World School of the Arts"}}, {"type": "node", "id": 358741849, "lat": 25.7761111, "lon": -80.1936111, "tags": {"amenity": "school", "ele": "3", "gnis:feature_id": "2077567", "name": "New World School of the Arts"}}, {"type": "node", "id": 358741898, "lat": 25.7697222, "lon": -80.2552778, "tags": {"amenity": "school", "ele": "4", "gnis:feature_id": "2077617", "name": "Nance School"}}, {"type": "node", "id": 358741908, "lat": 25.8305556, "lon": -80.2952778, "tags": {"amenity": "school", "ele": "1", "gnis:feature_id": "2077628", "name": "Miami Springs Adult School"}}, {"type": "node", "id": 358741911, "lat": 25.8208333, "lon": -80.2872222, "tags": {"amenity": "school", "ele": "1", "gnis:feature_id": "2077629", "name": "Miami Springs Baptist Church Kindergarten"}}, {"type": "node", "id": 358741919, "lat": 25.7018671, "lon": -80.4055065, "tags": {"addr:city": "Miami", "addr:housenumber": "13125", "addr:postcode": "33183", "addr:state": "FL", "addr:street": "Southwest 72nd Street", "amenity": "school", "ele": "1", "gnis:feature_id": "2077636", "name": "Miami Sunset Adult School", "operator": "Miami Dade Schools"}}, {"type": "node", "id": 358741935, "lat": 25.7327778, "lon": -80.3522222, "tags": {"amenity": "school", "ele": "2", "gnis:feature_id": "2077667", "name": "Montessori Childrens Academy"}}, {"type": "node", "id": 358741939, "lat": 25.6883333, "lon": -80.4227778, "tags": {"amenity": "school", "ele": "1", "gnis:feature_id": "2077670", "name": "Montessori Learning Center"}}, {"type": "node", "id": 358741941, "lat": 25.6861632, "lon": -80.3839515, "tags": {"amenity": "school", "ele": "2", "gnis:feature_id": "2077671", "name": "Montessori School of Kendall"}}, {"type": "node", "id": 358741951, "lat": 25.77054, "lon": -80.2357464}, {"type": "node", "id": 358741972, "lat": 25.7555556, "lon": -80.3386111, "tags": {"amenity": "school", "ele": "1", "gnis:feature_id": "2077723", "name": "Miami Coral Park Adult School"}}, {"type": "node", "id": 358741979, "lat": 25.765425, "lon": -80.2392696, "tags": {"amenity": "school", "ele": "3", "gnis:feature_id": "2077727", "name": "Miami Dade Community College Interamerican Center"}}, {"type": "node", "id": 358741982, "lat": 25.7766667, "lon": -80.1908333, "tags": {"amenity": "school", "ele": "3", "gnis:feature_id": "2077728", "name": "Miami Dade Community College Mitchel Wolfson Campus"}}, {"type": "node", "id": 358741991, "lat": 25.6044444, "lon": -80.3852778, "tags": {"amenity": "school", "ele": "3", "gnis:feature_id": "2077740", "name": "Miami Heights Head Start"}}, {"type": "node", "id": 358741995, "lat": 25.81, "lon": -80.225, "tags": {"amenity": "school", "ele": "3", "gnis:feature_id": "2077744", "name": "Miami Jackson Adult School"}}, {"type": "node", "id": 358742004, "lat": 25.838584, "lon": -80.2147243, "tags": {"amenity": "school", "ele": "3", "gnis:feature_id": "2077749", "name": "Miami Lakes Educational Center"}}, {"type": "node", "id": 358742019, "lat": 25.8386083, "lon": -80.2147206, "tags": {"amenity": "school", "ele": "3", "gnis:feature_id": "2077760", "name": "Miami Northwestern Adult School"}}, {"type": "node", "id": 358742024, "lat": 25.7580556, "lon": -80.3088889, "tags": {"amenity": "school", "ele": "2", "gnis:feature_id": "2077767", "name": "Little People School"}}, {"type": "node", "id": 358742027, "lat": 25.7558333, "lon": -80.2380556, "tags": {"amenity": "school", "ele": "3", "gnis:feature_id": "2077774", "name": "Little Shaver Number 1 Jose Marti School"}}, {"type": "node", "id": 358742030, "lat": 25.8591667, "lon": -80.2044444, "tags": {"amenity": "school", "ele": "3", "gnis:feature_id": "2077775", "name": "Little Skipper Preschool and Kindergarten"}}, {"type": "node", "id": 358742034, "lat": 25.7297222, "lon": -80.3947222, "tags": {"amenity": "school", "ele": "1", "gnis:feature_id": "2077776", "name": "Little Stars Preschool"}}, {"type": "node", "id": 358742037, "lat": 25.7330556, "lon": -80.37, "tags": {"amenity": "school", "ele": "1", "gnis:feature_id": "2077779", "name": "Little Village Academy"}}, {"type": "node", "id": 358742044, "lat": 25.6921527, "lon": -80.4052727, "tags": {"amenity": "school", "ele": "2", "gnis:feature_id": "2077783", "name": "Lollipop Cooperative Preschool"}}, {"type": "node", "id": 358742047, "lat": 25.6819444, "lon": -80.4163889, "tags": {"amenity": "school", "ele": "2", "gnis:feature_id": "2077785", "name": "Lord of Life Lutheran Preschool"}}, {"type": "node", "id": 358742086, "lat": 25.7694444, "lon": -80.2011111, "tags": {"amenity": "school", "ele": "1", "gnis:feature_id": "2077826", "name": "Mater Academy East Campus"}}, {"type": "node", "id": 358742088, "lat": 25.805, "lon": -80.2263889, "tags": {"amenity": "school", "ele": "2", "gnis:feature_id": "2077829", "name": "Maya Angelou Elementary School"}}, {"type": "node", "id": 358742103, "lat": 25.7783333, "lon": -80.3311111, "tags": {"amenity": "school", "ele": "2", "gnis:feature_id": "2077845", "name": "Learn and Play Preschool"}}, {"type": "node", "id": 358742107, "lat": 25.8619444, "lon": -80.1261111, "tags": {"amenity": "school", "ele": "0", "gnis:feature_id": "2077846", "name": "Lehrman Day School-Early Childhood Center"}}, {"type": "node", "id": 358742109, "lat": 25.4980556, "lon": -80.4319444, "tags": {"amenity": "school", "ele": "2", "gnis:feature_id": "2077849", "name": "Leisure City Head Start"}}, {"type": "node", "id": 358742113, "lat": 25.4983333, "lon": -80.4338889, "tags": {"amenity": "school", "ele": "3", "gnis:feature_id": "2077850", "name": "Leisure City K-8 Center"}}, {"type": "node", "id": 358742119, "lat": 25.8548934, "lon": -80.2055584, "tags": {"amenity": "school", "ele": "2", "gnis:feature_id": "2077859", "name": "Liberty City Charter Project School", "operational_status": "closed"}}, {"type": "node", "id": 358742123, "lat": 25.8391667, "lon": -80.2277778, "tags": {"amenity": "school", "ele": "3", "gnis:feature_id": "2077860", "name": "Liberty City Elementary Head Start"}}, {"type": "node", "id": 358742146, "lat": 25.7727778, "lon": -80.21, "tags": {"amenity": "school", "ele": "2", "gnis:feature_id": "2077874", "name": "Lincoln Marti Schools"}}, {"type": "node", "id": 358742149, "lat": 25.7644444, "lon": -80.2330556, "tags": {"amenity": "school", "ele": "3", "gnis:feature_id": "2077875", "name": "Lincoln Marti Schools"}}, {"type": "node", "id": 358742152, "lat": 25.7633333, "lon": -80.2388889, "tags": {"amenity": "school", "ele": "3", "gnis:feature_id": "2077877", "name": "Lincoln Marti Schools"}}, {"type": "node", "id": 358742155, "lat": 25.7731039, "lon": -80.2100557, "tags": {"amenity": "school", "ele": "2", "gnis:feature_id": "2077885", "name": "Lincoln-Marti School"}}, {"type": "node", "id": 358742162, "lat": 25.7581788, "lon": -80.3040373, "tags": {"amenity": "school", "ele": "2", "gnis:feature_id": "2077887", "name": "Lincoln-Marti School"}}, {"type": "node", "id": 358742165, "lat": 25.7811111, "lon": -80.2311111, "tags": {"amenity": "school", "ele": "2", "gnis:feature_id": "2077888", "name": "Lincoln-Marti School 10th Campus"}}, {"type": "node", "id": 358742169, "lat": 25.7730581, "lon": -80.2100232, "tags": {"amenity": "school", "ele": "2", "gnis:feature_id": "2077889", "name": "Lincoln-Marti School 11th Campus"}}, {"type": "node", "id": 358742174, "lat": 25.8311111, "lon": -80.2838889, "tags": {"amenity": "school", "ele": "1", "gnis:feature_id": "2077890", "name": "Lincoln-Marti School 12th Campus"}}, {"type": "node", "id": 358742182, "lat": 25.7638889, "lon": -80.2330556, "tags": {"amenity": "school", "ele": "3", "gnis:feature_id": "2077893", "name": "Lincoln-Marti School 1st Campus"}}, {"type": "node", "id": 358742189, "lat": 25.7630556, "lon": -80.2380556, "tags": {"amenity": "school", "ele": "3", "gnis:feature_id": "2077895", "name": "Lincoln-Marti School 3rd Campus"}}, {"type": "node", "id": 358742192, "lat": 25.8311111, "lon": -80.2830556, "tags": {"amenity": "school", "ele": "1", "gnis:feature_id": "2077896", "name": "Lincoln-Marti School 4th Campus"}}, {"type": "node", "id": 358742195, "lat": 25.7711111, "lon": -80.22, "tags": {"amenity": "school", "ele": "3", "gnis:feature_id": "2077897", "name": "Lincoln-Marti School 5th Campus"}}, {"type": "node", "id": 358742198, "lat": 25.7869444, "lon": -80.2211111, "tags": {"amenity": "school", "ele": "2", "gnis:feature_id": "2077898", "name": "Lincoln-Marti School 8th Campus"}}, {"type": "node", "id": 358742201, "lat": 25.8329495, "lon": -80.1886262, "tags": {"amenity": "school", "ele": "4", "gnis:feature_id": "2077899", "name": "Lincoln-Marti School 9th Campus"}}, {"type": "node", "id": 358742208, "lat": 25.7894364, "lon": -80.2080849, "tags": {"amenity": "school", "ele": "3", "gnis:feature_id": "2077901", "name": "Linda Ray Head Start"}}, {"type": "node", "id": 358742215, "lat": 25.5419444, "lon": -80.4130556, "tags": {"amenity": "school", "ele": "4", "gnis:feature_id": "2077905", "name": "Little A Academy"}}, {"type": "node", "id": 358742218, "lat": 25.7330556, "lon": -80.3330556, "tags": {"amenity": "school", "ele": "2", "fixme": "Verify position", "gnis:feature_id": "2077908", "name": "Little Bird Kindergarten"}}, {"type": "node", "id": 358742221, "lat": 25.7730556, "lon": -80.21, "tags": {"amenity": "school", "ele": "2", "gnis:feature_id": "2077916", "name": "Little Havana 2nd Campus"}}, {"type": "node", "id": 358742238, "lat": 25.7138889, "lon": -80.4130556, "tags": {"amenity": "school", "ele": "1", "gnis:feature_id": "2077935", "name": "Kid's World Preschool"}}, {"type": "node", "id": 358742241, "lat": 25.665436, "lon": -80.3347675}, {"type": "node", "id": 358742244, "lat": 25.6719444, "lon": -80.3511111, "tags": {"amenity": "school", "ele": "4", "gnis:feature_id": "2077938", "name": "Killian Oaks Academy"}}, {"type": "node", "id": 358742253, "lat": 25.6941667, "lon": -80.3236111, "tags": {"amenity": "school", "ele": "2", "gnis:feature_id": "2077950", "name": "Kings Creek Day School"}}, {"type": "node", "id": 358742257, "lat": 25.6758333, "lon": -80.4211111, "tags": {"amenity": "school", "ele": "2", "gnis:feature_id": "2077951", "name": "Kings Meadow Day School"}}, {"type": "node", "id": 358742263, "lat": 25.8302356, "lon": -80.2786533, "tags": {"amenity": "school", "ele": "1", "gnis:feature_id": "2077961", "name": "La Scala Day Care Center I"}}, {"type": "node", "id": 358742273, "lat": 25.7822222, "lon": -80.1411111, "tags": {"amenity": "school", "ele": "0", "gnis:feature_id": "2077976", "name": "Landow Preschool"}}, {"type": "node", "id": 358742295, "lat": 25.68, "lon": -80.3338889, "tags": {"amenity": "school", "ele": "4", "gnis:feature_id": "2077996", "name": "Jesus Fellowship Christian School"}}, {"type": "node", "id": 358742308, "lat": 25.8211895, "lon": -80.3650518}, {"type": "node", "id": 358742315, "lat": 25.7561111, "lon": -80.2380556, "tags": {"amenity": "school", "ele": "3", "gnis:feature_id": "2078010", "name": "Jose Marti School 1st Campus"}}, {"type": "node", "id": 358742317, "lat": 25.7619444, "lon": -80.2388889, "tags": {"amenity": "school", "ele": "3", "gnis:feature_id": "2078011", "name": "Jose Marti School 2nd Campus"}}, {"type": "node", "id": 358742320, "lat": 25.7561111, "lon": -80.2469444, "tags": {"amenity": "school", "ele": "3", "gnis:feature_id": "2078012", "name": "Jose Marti School 3rd Campus"}}, {"type": "node", "id": 358742324, "lat": 25.7094444, "lon": -80.2933333, "tags": {"amenity": "school", "ele": "3", "gnis:feature_id": "2078015", "name": "Jre Lee Educational Center"}}, {"type": "node", "id": 358742330, "lat": 25.8058333, "lon": -80.2427778, "tags": {"amenity": "school", "ele": "2", "gnis:feature_id": "2078020", "name": "Juvenile Justice Center Alternative Education Center"}}, {"type": "node", "id": 358742337, "lat": 25.7033159, "lon": -80.3162837, "tags": {"amenity": "school", "ele": "5", "gnis:feature_id": "2078025", "name": "Kendall Academy"}}, {"type": "node", "id": 358742341, "lat": 25.667003, "lon": -80.3322148, "tags": {"amenity": "school", "denomination": "presbyterian", "ele": "3", "gnis:feature_id": "2078026", "name": "Kendall Christian School", "religion": "christian"}}, {"type": "node", "id": 358742344, "lat": 25.6736384, "lon": -80.3185024, "tags": {"amenity": "school", "ele": "3", "gnis:feature_id": "2078028", "name": "Kendall United Methodist Day School"}}, {"type": "node", "id": 358742347, "lat": 25.7822222, "lon": -80.2438889, "tags": {"amenity": "school", "ele": "2", "gnis:feature_id": "2078031", "name": "Kensington Primary School"}}, {"type": "node", "id": 358742350, "lat": 25.6836111, "lon": -80.3241667, "tags": {"amenity": "school", "ele": "3", "gnis:feature_id": "2078033", "name": "Kenwood School"}}, {"type": "node", "id": 358742364, "lat": 25.7622222, "lon": -80.2633333, "tags": {"amenity": "school", "ele": "4", "gnis:feature_id": "2078060", "name": "Kiddie Country Club School"}}, {"type": "node", "id": 358742371, "lat": 25.6991667, "lon": -80.3961111, "tags": {"amenity": "school", "ele": "2", "gnis:feature_id": "2078078", "name": "Holy Cross Academy"}}, {"type": "node", "id": 358742390, "lat": 25.7720992, "lon": -80.2526692, "tags": {"amenity": "school", "ele": "4", "gnis:feature_id": "2078099", "name": "ICA Learning Center of America"}}, {"type": "node", "id": 358742420, "lat": 25.5686111, "lon": -80.3888889, "tags": {"amenity": "school", "ele": "2", "gnis:feature_id": "2078119", "name": "Isaac Withers Head Start"}}, {"type": "node", "id": 358742502, "lat": 25.6936111, "lon": -80.4247222, "tags": {"amenity": "school", "ele": "1", "gnis:feature_id": "2078208", "name": "Happy Hammock Cooperative Preschool"}}, {"type": "node", "id": 358742512, "lat": 25.6694444, "lon": -80.3577778, "tags": {"amenity": "school", "ele": "2", "gnis:feature_id": "2078216", "name": "Harmony Day School"}}, {"type": "node", "id": 358742517, "lat": 25.6330024, "lon": -80.3834345, "tags": {"amenity": "school", "ele": "3", "gnis:feature_id": "2078221", "name": "Glendale Baptist Preschool Academy"}}, {"type": "node", "id": 358742529, "lat": 25.7, "lon": -80.4219444, "tags": {"amenity": "school", "building": "church", "ele": "2", "gnis:feature_id": "2078240", "name": "Good Sheperd School"}}, {"type": "node", "id": 358742532, "lat": 25.6211111, "lon": -80.4169444, "tags": {"amenity": "school", "ele": "2", "gnis:feature_id": "2078245", "name": "Gordon Primary School Manatee"}}, {"type": "node", "id": 358742535, "lat": 25.6286111, "lon": -80.3944444, "tags": {"amenity": "school", "ele": "2", "gnis:feature_id": "2078246", "name": "Gordon Primary School Panther"}}, {"type": "node", "id": 358742537, "lat": 25.7347414, "lon": -80.2727188, "tags": {"amenity": "school", "ele": "3", "gnis:feature_id": "2078251", "name": "Granada Presbyterian Day School"}}, {"type": "node", "id": 358742540, "lat": 25.7883333, "lon": -80.2561111, "tags": {"amenity": "school", "ele": "2", "gnis:feature_id": "2078254", "name": "Grapeland Park Preschool"}}, {"type": "node", "id": 358742544, "lat": 25.7816667, "lon": -80.1986111, "tags": {"amenity": "school", "ele": "2", "gnis:feature_id": "2078258", "name": "Greater Bethel Head Start"}}, {"type": "node", "id": 358742553, "lat": 25.5723481, "lon": -80.3483724, "tags": {"amenity": "school", "ele": "1", "gnis:feature_id": "2078268", "name": "Gulfstream Elementary Head Start"}}, {"type": "node", "id": 358742556, "lat": 25.6919053, "lon": -80.2854426, "tags": {"amenity": "school", "ele": "1", "gnis:feature_id": "2078269", "name": "Gulliver South Miami Campus", "note": "I dont think that this is the correct placement of this but it most definitely is not in the park so I moved it out"}}, {"type": "node", "id": 358742565, "lat": 25.7036111, "lon": -80.3027778, "tags": {"amenity": "school", "ele": "3", "gnis:feature_id": "2078283", "name": "Happi Tymes Kindergarten"}}, {"type": "node", "id": 358742572, "lat": 25.7441667, "lon": -80.3922222, "tags": {"amenity": "school", "ele": "1", "gnis:feature_id": "2078293", "name": "Gladeview Christian School"}}, {"type": "node", "id": 358742579, "lat": 25.5819444, "lon": -80.3919444, "tags": {"amenity": "school", "ele": "3", "gnis:feature_id": "2078298", "name": "First Impressions Preschool and Child Care Center"}}, {"type": "node", "id": 358742582, "lat": 25.7534793, "lon": -80.3678008, "tags": {"amenity": "school", "ele": "1", "gnis:feature_id": "2078299", "name": "First Infant University"}}, {"type": "node", "id": 358742586, "lat": 25.8211111, "lon": -80.2861111, "tags": {"amenity": "school", "ele": "1", "gnis:feature_id": "2078300", "name": "First Presbyterian Church Preschool"}}, {"type": "node", "id": 358742602, "lat": 25.8213753, "lon": -80.2366641, "tags": {"amenity": "school", "ele": "3", "gnis:feature_id": "2078310", "name": "Floral Heights Head Start"}}, {"type": "node", "id": 358742618, "lat": 25.8608333, "lon": -80.3055556, "tags": {"amenity": "school", "ele": "1", "gnis:feature_id": "2078319", "name": "Florida National College"}}, {"type": "node", "id": 358742639, "lat": 25.5822125, "lon": -80.330846, "tags": {"amenity": "school", "ele": "2", "gnis:feature_id": "2078342", "name": "Friendship Cooperative Preschool"}}, {"type": "node", "id": 358742648, "lat": 25.7333523, "lon": -80.4314389, "tags": {"amenity": "school", "ele": "1", "gnis:feature_id": "2078350", "name": "G. Holmes Braddock Adult Center"}}, {"type": "node", "id": 358742652, "lat": 25.7322369, "lon": -80.431693}, {"type": "node", "id": 358742655, "lat": 25.7080486, "lon": -80.3512453, "tags": {"amenity": "school", "ele": "2", "gnis:feature_id": "2078355", "name": "Gateway Baptist Preschool and Kindergarten"}}, {"type": "node", "id": 358742656, "lat": 25.7078428, "lon": -80.3510364, "tags": {"amenity": "school", "ele": "2", "gnis:feature_id": "2078356", "name": "Gateway Christian Elementary School"}}, {"type": "node", "id": 358742667, "lat": 25.6669444, "lon": -80.3788889, "tags": {"amenity": "school", "ele": "3", "gnis:feature_id": "2078363", "name": "Gettysburg Academy"}}, {"type": "node", "id": 358742669, "lat": 25.7263889, "lon": -80.2519444, "tags": {"amenity": "school", "ele": "3", "gnis:feature_id": "2078364", "name": "Gibson Charter School"}}, {"type": "node", "id": 358742684, "lat": 25.7388889, "lon": -80.2511111, "tags": {"amenity": "school", "ele": "3", "gnis:feature_id": "2078374", "name": "English Center Head Start"}}, {"type": "node", "id": 358742706, "lat": 25.6830556, "lon": -80.3233333, "tags": {"amenity": "school", "ele": "4", "gnis:feature_id": "2078389", "name": "Fairglade School"}}, {"type": "node", "id": 358742710, "lat": 25.8552778, "lon": -80.3086111, "tags": {"amenity": "school", "ele": "1", "gnis:feature_id": "2078391", "name": "Fairytales Preschool"}}, {"type": "node", "id": 358742713, "lat": 25.8227778, "lon": -80.2755556, "tags": {"amenity": "school", "ele": "1", "gnis:feature_id": "2078392", "name": "Faith Lutheran School"}}, {"type": "node", "id": 358742720, "lat": 25.7019444, "lon": -80.355, "tags": {"amenity": "school", "ele": "2", "gnis:feature_id": "2078394", "name": "Family Education and Enrichment Center"}}, {"type": "node", "id": 358742723, "lat": 25.7863889, "lon": -80.1316667, "tags": {"amenity": "school", "ele": "1", "gnis:feature_id": "2078399", "name": "Feinberg-Fisher Head Start"}}, {"type": "node", "id": 358742729, "lat": 25.7866256, "lon": -80.1334557}, {"type": "node", "id": 358742732, "lat": 25.733367, "lon": -80.2624619, "tags": {"amenity": "school", "ele": "4", "gnis:feature_id": "2078442", "name": "District Instructional Center 8"}}, {"type": "node", "id": 358742734, "lat": 25.7202778, "lon": -80.3052778, "tags": {"amenity": "school", "ele": "3", "gnis:feature_id": "2078443", "name": "District Instructional Center 9"}}, {"type": "node", "id": 358742737, "lat": 25.7894466, "lon": -80.1897315, "tags": {"amenity": "school", "ele": "2", "gnis:feature_id": "2078444", "name": "District Instructional Center A"}}, {"type": "node", "id": 358742742, "lat": 25.7894184, "lon": -80.1896452, "tags": {"amenity": "school", "ele": "2", "gnis:feature_id": "2078445", "name": "District Instructional Center B"}}, {"type": "node", "id": 358742744, "lat": 25.7891909, "lon": -80.1897209, "tags": {"amenity": "school", "ele": "2", "gnis:feature_id": "2078446", "name": "District Instructional Center C"}}, {"type": "node", "id": 358742748, "lat": 25.7891667, "lon": -80.1897222, "tags": {"amenity": "school", "ele": "2", "gnis:feature_id": "2078447", "name": "District Instructional Center D"}}, {"type": "node", "id": 358742752, "lat": 25.7894217, "lon": -80.1896777, "tags": {"amenity": "school", "ele": "2", "gnis:feature_id": "2078448", "name": "District Instructional Center J"}},