{"version": 0.6, "generator": "Overpass API 0.7.62.4 2390de5a", "osm3s": {"timestamp_osm_base": "2024-12-01T13:11:45Z", "copyright": "The data included in this document is from www.openstreetmap.org. The data is made available under ODbL."}, "elements": [{"type": "node", "id": 29076108, "lat": 45.7056646, "lon": 4.8877581, "tags": {"name": "Gare de V\u00e9nissieux", "network": "TCL", "network:wikidata": "Q8700", "operator": "Keolis Lyon", "operator:wikidata": "Q61456136", "public_transport": "stop_position", "railway": "tram_stop", "tram": "yes", "wheelchair": "yes"}}, {"type": "node", "id": 371210587, "lat": 45.7155233, "lon": 4.8784129, "tags": {"name": "Joliot Curie - Marcel Sembat", "network": "TCL", "network:wikidata": "Q8700", "operator": "Keolis Lyon", "operator:wikidata": "Q61456136", "public_transport": "stop_position", "railway": "tram_stop", "tram": "yes", "wheelchair": "yes"}}, {"type": "node", "id": 371219100, "lat": 45.6968368, "lon": 4.8617597, "tags": {"name": "L\u00e9nine - Corsi\u00e8re", "network": "TCL", "network:wikidata": "Q8700", "operator": "Keolis Lyon", "operator:wikidata": "Q61456136", "public_transport": "stop_position", "railway": "tram_stop", "tram": "yes", "wheelchair": "yes"}}, {"type": "node", "id": 371219118, "lat": 45.6926515, "lon": 4.8643379, "tags": {"name": "Darnaise", "network": "TCL", "network:wikidata": "Q8700", "operator": "Keolis Lyon", "operator:wikidata": "Q61456136", "public_transport": "stop_position", "railway": "tram_stop", "tram": "yes", "wheelchair": "yes"}}, {"type": "node", "id": 371222143, "lat": 45.7111586, "lon": 4.8821497, "tags": {"name": "La Borelle", "network": "TCL", "network:wikidata": "Q8700", "operator": "Keolis Lyon", "operator:wikidata": "Q61456136", "public_transport": "stop_position", "railway": "tram_stop", "tram": "yes", "wheelchair": "yes"}}, {"type": "node", "id": 371224260, "lat": 45.7000467, "lon": 4.8876491, "tags": {"name": "Croizat - Paul Bert", "network": "TCL", "network:wikidata": "Q8700", "operator": "Keolis Lyon", "operator:wikidata": "Q61456136", "public_transport": "stop_position", "railway": "tram_stop", "tram": "yes", "wheelchair": "yes"}}, {"type": "node", "id": 371224263, "lat": 45.6964885, "lon": 4.8845462, "tags": {"name": "Marcel Hou\u00ebl - H\u00f4tel de Ville", "network": "TCL", "network:wikidata": "Q8700", "operator": "Keolis Lyon", "operator:wikidata": "Q61456136", "public_transport": "stop_position", "railway": "tram_stop", "tram": "yes", "wheelchair": "yes"}}, {"type": "node", "id": 371224264, "lat": 45.6949124, "lon": 4.8799064, "tags": {"name": "Lyc\u00e9e Jacques Brel", "network": "TCL", "network:wikidata": "Q8700", "operator": "Keolis Lyon", "operator:wikidata": "Q61456136", "public_transport": "stop_position", "railway": "tram_stop", "tram": "yes", "wheelchair": "yes"}}, {"type": "node", "id": 371224267, "lat": 45.6937696, "lon": 4.8754428, "tags": {"name": "Herriot - Cagne", "network": "TCL", "network:wikidata": "Q8700", "operator": "Keolis Lyon", "operator:wikidata": "Q61456136", "public_transport": "stop_position", "railway": "tram_stop", "source": "http://www.tcl.fr/var/tcl/storage/original/application/2250c3f8e808c90bcc104e30dc9cb036.pdf", "tram": "yes", "wheelchair": "yes"}}, {"type": "node", "id": 371224269, "lat": 45.6960059, "lon": 4.8719378, "tags": {"name": "V\u00e9nissy - Frida Kahlo", "network": "TCL", "network:wikidata": "Q8700", "operator": "Keolis Lyon", "operator:wikidata": "Q61456136", "public_transport": "stop_position", "railway": "tram_stop", "tram": "yes", "wheelchair": "yes"}}, {"type": "node", "id": 371224272, "lat": 45.6984273, "lon": 4.8681589, "tags": {"name": "Division Leclerc", "network": "TCL", "network:wikidata": "Q8700", "operator": "Keolis Lyon", "operator:wikidata": "Q61456136", "public_transport": "stop_position", "railway": "tram_stop", "tram": "yes", "wheelchair": "yes"}}, {"type": "node", "id": 371224274, "lat": 45.6998412, "lon": 4.8632933, "tags": {"name": "Maurice Thorez", "network": "TCL", "network:wikidata": "Q8700", "operator": "Keolis Lyon", "operator:wikidata": "Q61456136", "public_transport": "stop_position", "railway": "tram_stop", "tram": "yes", "wheelchair": "yes"}}, {"type": "node", "id": 1981090784, "lat": 45.7155088, "lon": 4.8783747, "tags": {"name": "Joliot Curie - Marcel Sembat", "network": "TCL", "network:wikidata": "Q8700", "operator": "Keolis Lyon", "operator:wikidata": "Q61456136", "public_transport": "stop_position", "railway": "tram_stop", "tram": "yes", "wheelchair": "yes"}}, {"type": "node", "id": 1981104044, "lat": 45.705666, "lon": 4.887712, "tags": {"name": "Gare de V\u00e9nissieux", "network": "TCL", "network:wikidata": "Q8700", "operator": "Keolis Lyon", "operator:wikidata": "Q61456136", "public_transport": "stop_position", "railway": "tram_stop", "tram": "yes", "wheelchair": "yes"}}, {"type": "node", "id": 1981104067, "lat": 45.7111249, "lon": 4.8821463, "tags": {"name": "La Borelle", "network": "TCL", "network:wikidata": "Q8700", "operator": "Keolis Lyon", "operator:wikidata": "Q61456136", "public_transport": "stop_position", "railway": "tram_stop", "tram": "yes", "wheelchair": "yes"}}, {"type": "node", "id": 1981141922, "lat": 45.6937892, "lon": 4.8754645, "tags": {"name": "Herriot - Cagne", "network": "TCL", "network:wikidata": "Q8700", "operator": "Keolis Lyon", "operator:wikidata": "Q61456136", "public_transport": "stop_position", "railway": "tram_stop", "source": "http://www.tcl.fr/var/tcl/storage/original/application/2250c3f8e808c90bcc104e30dc9cb036.pdf", "tram": "yes", "wheelchair": "yes"}}, {"type": "node", "id": 1981141927, "lat": 45.7000446, "lon": 4.8876094, "tags": {"name": "Croizat - Paul Bert", "network": "TCL", "network:wikidata": "Q8700", "operator": "Keolis Lyon", "operator:wikidata": "Q61456136", "public_transport": "stop_position", "railway": "tram_stop", "tram": "yes", "wheelchair": "yes"}}, {"type": "node", "id": 1981141935, "lat": 45.6949285, "lon": 4.8798688, "tags": {"name": "Lyc\u00e9e Jacques Brel", "network": "TCL", "network:wikidata": "Q8700", "operator": "Keolis Lyon", "operator:wikidata": "Q61456136", "public_transport": "stop_position", "railway": "tram_stop", "tram": "yes", "wheelchair": "yes"}}, {"type": "node", "id": 1981141939, "lat": 45.6965134, "lon": 4.8845271, "tags": {"name": "Marcel Hou\u00ebl - H\u00f4tel de Ville", "network": "TCL", "network:wikidata": "Q8700", "operator": "Keolis Lyon", "operator:wikidata": "Q61456136", "public_transport": "stop_position", "railway": "tram_stop", "tram": "yes", "wheelchair": "yes"}}, {"type": "node", "id": 1981141943, "lat": 45.6960212, "lon": 4.871963, "tags": {"name": "V\u00e9nissy - Frida Kahlo", "network": "TCL", "network:wikidata": "Q8700", "operator": "Keolis Lyon", "operator:wikidata": "Q61456136", "public_transport": "stop_position", "railway": "tram_stop", "tram": "yes", "wheelchair": "yes"}}, {"type": "node", "id": 1981163329, "lat": 45.6926306, "lon": 4.8643149, "tags": {"name": "Darnaise", "network": "TCL", "network:wikidata": "Q8700", "operator": "Keolis Lyon", "operator:wikidata": "Q61456136", "public_transport": "stop_position", "railway": "tram_stop", "tram": "yes", "wheelchair": "yes"}}, {"type": "node", "id": 1981163330, "lat": 45.6984421, "lon": 4.8681902, "tags": {"name": "Division Leclerc", "network": "TCL", "network:wikidata": "Q8700", "operator": "Keolis Lyon", "operator:wikidata": "Q61456136", "public_transport": "stop_position", "railway": "tram_stop", "tram": "yes", "wheelchair": "yes"}}, {"type": "node", "id": 1981163332, "lat": 45.6968212, "lon": 4.861729, "tags": {"name": "L\u00e9nine - Corsi\u00e8re", "network": "TCL", "network:wikidata": "Q8700", "operator": "Keolis Lyon", "operator:wikidata": "Q61456136", "public_transport": "stop_position", "railway": "tram_stop", "tram": "yes", "wheelchair": "yes"}}, {"type": "node", "id": 1981163333, "lat": 45.6998668, "lon": 4.8632882, "tags": {"name": "Maurice Thorez", "network": "TCL", "network:wikidata": "Q8700", "operator": "Keolis Lyon", "operator:wikidata": "Q61456136", "public_transport": "stop_position", "railway": "tram_stop", "tram": "yes", "wheelchair": "yes"}}]}