{"version": 0.6, "generator": "Overpass API 0.7.62.4 2390de5a", "osm3s": {"timestamp_osm_base": "2024-11-29T12:58:45Z", "copyright": "The data included in this document is from www.openstreetmap.org. The data is made available under ODbL."}, "elements": [{"type": "node", "id": 7834486506, "lat": 45.7675662, "lon": 4.9405458, "tags": {"amenity": "social_facility", "fax": "+33472198894", "name": "Ehpad Albert Morlot", "phone": "+33478836817", "ref:FR:FINESS": "690785522", "social_facility": "nursing_home", "social_facility:for": "senior", "source": "Le minist\u00e8re des solidarit\u00e9s et de la sant\u00e9 - 03/2019", "type:FR:FINESS": "500", "wikidata": "Q112998599"}}, {"type": "node", "id": 7834486507, "lat": 45.7712012, "lon": 4.9437434, "tags": {"amenity": "social_facility", "fax": "+33472026400", "name": "Fleurs d'Automne", "phone": "+33472026464", "ref:FR:FINESS": "690802996", "ref:FR:SIRET": "31260970400068", "social_facility": "nursing_home", "social_facility:for": "senior", "source": "Le minist\u00e8re des solidarit\u00e9s et de la sant\u00e9 - 03/2019", "type:FR:FINESS": "500", "wikidata": "Q112998739"}}, {"type": "node", "id": 7834486508, "lat": 45.7688178, "lon": 4.9651232, "tags": {"amenity": "social_facility", "fax": "+33472026610", "name": "Ehpad Les Volubilis", "phone": "+33472026666", "ref:FR:FINESS": "690801006", "ref:FR:SIRET": "32735516000042", "social_facility": "nursing_home", "social_facility:for": "senior", "source": "Le minist\u00e8re des solidarit\u00e9s et de la sant\u00e9 - 03/2019", "type:FR:FINESS": "500", "wikidata": "Q112998704"}}, {"type": "node", "id": 7927533119, "lat": 45.767564, "lon": 4.9395022, "tags": {"amenity": "social_facility", "name": "Maison d'accueil sp\u00e9cialis\u00e9e Michel Chapuis", "operator": "OVE", "operator:type": "private", "social_facility": "nursing_home", "social_facility:for": "senior"}}, {"type": "node", "id": 9791057178, "lat": 45.7680505, "lon": 4.9389778, "tags": {"amenity": "social_facility", "name": "Maison d'accueil sp\u00e9cialis\u00e9e Michel Chapuis", "short_name": "MAS M. Chapuis"}}]}