{"version": 0.6, "generator": "Overpass API 0.7.62.1 084b4234", "osm3s": {"timestamp_osm_base": "2024-11-21T12:37:02Z", "copyright": "The data included in this document is from www.openstreetmap.org. The data is made available under ODbL."}, "elements": [{"type": "node", "id": 25214045, "lat": 45.7262794, "lon": 4.829065, "tags": {"amenity": "fuel", "brand": "Total Access", "brand:wikidata": "Q154037", "brand:wikipedia": "fr:Total (entreprise)", "compressed_air": "yes", "fuel:diesel": "yes", "fuel:e10": "yes", "fuel:e85": "yes", "fuel:lpg": "yes", "fuel:octane_98": "yes", "name": "Total Access", "opening_hours": "24/7", "operator": "Total", "ref:FR:prix-carburants": "69007008", "shop": "convenience;gas", "source": "Minist\u00e8re de l'Economie, de l'Industrie et du Num\u00e9rique - 08/04/2018", "toilets": "yes", "vending": "fuel", "vending_machine": "fuel", "wheelchair": "yes"}}, {"type": "node", "id": 25339013, "lat": 45.7564901, "lon": 4.7835531, "tags": {"name": "Artisans du Monde", "opening_hours": "Mo 15:00-19:00, Tu-Sa 09:30-12:30,15:00-19:00", "shop": "gift", "website": "http://lyon-ouest.artisansdumonde.org"}}, {"type": "node", "id": 26577745, "lat": 45.7608482, "lon": 4.8552312}, {"type": "node", "id": 26647027, "lat": 45.7600968, "lon": 4.8557139, "tags": {"brand": "Carrefour", "brand:wikidata": "Q217599", "brand:wikipedia": "fr:Carrefour (enseigne)", "name": "Carrefour Lyon Part-Dieu", "opening_hours": "Mo-Fr 08:30-21:30; Sa 08:30-21:00", "ref:FR:SIRET": "45132133500437", "shop": "supermarket", "website": "https://www.carrefour.fr/magasin/lyon-part-dieu", "wheelchair": "yes"}}, {"type": "node", "id": 34991534, "lat": 45.738463, "lon": 4.8675169, "tags": {"amenity": "fuel", "brand": "Total Access", "brand:wikidata": "Q154037", "brand:wikipedia": "fr:Total (entreprise)", "check_date": "2023-09-21", "compressed_air": "yes", "fuel:diesel": "yes", "fuel:e10": "yes", "fuel:e85": "yes", "fuel:octane_98": "yes", "name": "Total Access", "opening_hours": "24/7", "ref:FR:prix-carburants": "69008007", "shop": "convenience;gas", "source": "Minist\u00e8re de l'Economie, de l'Industrie et du Num\u00e9rique - 08/04/2018", "vending": "fuel", "vending_machine": "fuel"}}, {"type": "node", "id": 34991535, "lat": 45.737393, "lon": 4.867613, "tags": {"brand": "Intermarch\u00e9 Super", "brand:wikidata": "Q98278038", "check_date": "2024-07-17", "name": "Intermarch\u00e9 Super", "opening_hours": "Mo-Sa 08:00-21:00; Su 08:30-12:45", "operator": "Intermarch\u00e9", "payment:cash": "yes", "payment:contactless": "yes", "payment:debit_cards": "yes", "phone": "+33 4 72 78 02 00", "shop": "supermarket", "start_date": "2024-07-23", "website": "https://www.intermarche.com/magasins/11805/lyon-69008/infos-pratiques", "wheelchair": "yes"}}, {"type": "node", "id": 80078853, "lat": 45.7545628, "lon": 4.8455661, "tags": {"brand": "Franprix", "brand:wikidata": "Q2420096", "brand:wikipedia": "fr:Franprix", "check_date": "2023-08-18", "name": "Franprix", "opening_hours": "Mo-Sa 07:30-21:00; Su 09:00-20:00", "ref:FR:SIRET": "44949553000031", "shop": "convenience", "website": "https://www.franprix.fr/magasins/5656", "wheelchair": "yes"}}, {"type": "node", "id": 80236926, "lat": 45.7633263, "lon": 4.8360079, "tags": {"brand": "Monoprix", "brand:wikidata": "Q3321241", "brand:wikipedia": "en:Monoprix", "check_date:opening_hours": "2024-02-03", "name": "Monoprix", "opening_hours": "Mo-Sa 08:00-21:00; Su 09:00-13:00", "operator": "Groupe Casino", "phone": "+33 4 37 23 70 20", "ref:FR:SIRET": "55208329702578", "shop": "supermarket", "website": "https://www.monoprix.fr/225.html", "wheelchair": "yes"}}, {"type": "node", "id": 85850537, "lat": 45.7311456, "lon": 4.8355482, "tags": {"brand": "Carrefour City", "brand:wikidata": "Q2940187", "brand:wikipedia": "fr:Carrefour City", "name": "Carrefour City", "opening_hours": "Mo-Sa 07:00-22:00; Su 09:00-13:00", "operator": "Carrefour", "phone": "+33 4 72 14 22 33", "ref:FR:SIRET": "85008646300013", "shop": "supermarket", "website": "https://www.carrefour.fr/magasin/city-lyon-gouy", "wheelchair": "yes"}}, {"type": "node", "id": 95836732, "lat": 45.7507107, "lon": 4.8557839, "tags": {"brand": "Intermarch\u00e9 Express", "brand:wikidata": "Q98278043", "check_date": "2024-06-03", "name": "Intermarch\u00e9 Express", "opening_hours": "24/7", "payment:cash": "yes", "payment:credit_cards": "yes", "payment:debit_cards": "yes", "shop": "supermarket", "wheelchair": "yes"}}, {"type": "node", "id": 95836772, "lat": 45.7445962, "lon": 4.8442915, "tags": {"name": "KL Destockage", "shop": "shoes", "survey:date": "2020-12-26"}}, {"type": "node", "id": 97075447, "lat": 45.7633935, "lon": 4.8517549, "tags": {"brand": "Monoprix", "brand:wikidata": "Q3321241", "brand:wikipedia": "en:Monoprix", "check_date:opening_hours": "2023-01-03", "name": "Monoprix", "opening_hours": "Mo-Sa 08:00-20:55; Su 08:00-13:00", "opening_hours:signed": "no", "phone": "+33 4 78 60 20 15", "ref:FR:SIRET": "55208329701687", "shop": "supermarket", "website": "https://www.monoprix.fr/840.html"}}, {"type": "node", "id": 173405321, "lat": 45.7433976, "lon": 4.870351, "tags": {"brand": "U Express", "brand:wikidata": "Q2529029", "brand:wikipedia": "en:Syst\u00e8me U", "check_date:opening_hours": "2024-09-14", "name": "U Express Monplaisir Lumi\u00e8re", "opening_hours": "Mo-Sa 07:00-22:00; Su 08:00-13:00", "operator": "Carrefour", "phone": "+33 4 78 74 44 63", "shop": "supermarket", "website": "https://www.magasins-u.com/magasin/uexpress-lyonmonplaisirlumiere"}}, {"type": "node", "id": 173407194, "lat": 45.7445394, "lon": 4.7839408, "tags": {"name": "\u00c9picerie de la Plaine", "shop": "convenience"}}, {"type": "node", "id": 202850133, "lat": 45.7609061, "lon": 4.8552223}, {"type": "node", "id": 203963959, "lat": 45.7556618, "lon": 4.8427454, "tags": {"opening_hours": "Tu,We,Fr 08:50-12:30,13:30-17:45, Th 08:50-12:30,14:15-17:45, Sa 09:00-12:20", "shop": "vacant", "survey:date": "2023-08-19"}}, {"type": "node", "id": 203965260, "lat": 45.7561439, "lon": 4.8432173, "tags": {"brand": "U Express", "brand:wikidata": "Q2529029", "brand:wikipedia": "en:Syst\u00e8me U", "name": "U Express", "shop": "supermarket"}}, {"type": "node", "id": 204912050, "lat": 45.7622188, "lon": 4.856814}, {"type": "node", "id": 204912054, "lat": 45.7621157, "lon": 4.8568643}, {"type": "node", "id": 235779148, "lat": 45.7595921, "lon": 4.8266153, "tags": {"brand": "Casino Shop", "brand:wikidata": "Q89029601", "name": "Casino Shop", "opening_hours": "Mo-Sa 07:00-23:45", "operator": "Casino", "phone": "+33 4 78 37 45 48", "shop": "convenience", "website": "https://magasins.lepetitcasino.com/fr/s/casino-shop-lyon-doyenne", "wheelchair": "yes"}}, {"type": "node", "id": 242388522, "lat": 45.7764491, "lon": 4.8294895}, {"type": "node", "id": 242388523, "lat": 45.7765129, "lon": 4.8302696}, {"type": "node", "id": 242388524, "lat": 45.775965, "lon": 4.830482}, {"type": "node", "id": 242388526, "lat": 45.7760261, "lon": 4.8298158}, {"type": "node", "id": 243207815, "lat": 45.7451674, "lon": 4.8655574, "tags": {"brand": "Carrefour Market", "brand:wikidata": "Q2689639", "brand:wikipedia": "en:Carrefour Market", "check_date:opening_hours": "2024-05-29", "contact:phone": "+33 472785210", "delivery": "yes", "drive_through": "yes", "name": "Carrefour Market Lyon Fr\u00e8res Lumi\u00e8re", "opening_hours": "Mo-Sa 08:30-21:00; Su 09:00-12:30", "operator": "Carrefour", "ref:FR:SIRET": "41515331100014", "shop": "supermarket", "website": "https://www.carrefour.fr/magasin/market-lyon-freres-lumiere", "wheelchair": "yes"}}, {"type": "node", "id": 245489115, "lat": 45.7438832, "lon": 4.8700229, "tags": {"note": "Ferm\u00e9 d\u00e9finitivement en d\u00e9cembre 2023", "shop": "vacant"}}, {"type": "node", "id": 245957289, "lat": 45.7434116, "lon": 4.8746767, "tags": {"brand": "Casino Shop", "brand:wikidata": "Q2670967", "check_date": "2023-06-24", "level": "0", "name": "Le Petit Casino des Fr\u00e8res Lumi\u00e8re", "opening_hours": "Mo-Fr 07:30-20:00; Sa 08:00-20:00; Su 08:00-13:00", "operator": "Casino", "payment:debit_cards": "yes", "ref:FR:SIRET": "42826802340875", "shop": "convenience", "wheelchair": "yes"}}, {"type": "node", "id": 246746079, "lat": 45.7672621, "lon": 4.8247044, "tags": {"email": "69lyon-centre@culturevelo.com", "name": "Culture V\u00e9lo Lyon-Centre", "opening_hours": "Mo-Th 10:00-19:00; Sa 10:00-18:00; Fr 10:00-12:00,14:00-19:00", "phone": "+33 4 28 29 90 10", "service:bicycle:retail": "yes", "shop": "bicycle", "website": "https://www.culturevelo.com/-Lyon-centre-"}}, {"type": "node", "id": 246746080, "lat": 45.7672353, "lon": 4.824445, "tags": {"check_date": "2024-06-10", "shop": "vacant"}}, {"type": "node", "id": 246746974, "lat": 45.7672586, "lon": 4.8267426, "tags": {"contact:facebook": "https://www.facebook.com/Les-Cycles-Veran-110425245747528/", "contact:instagram": "https://www.instagram.com/cyclesveran/", "email": "veran@cyclesveran.fr", "name": "V\u00e9ran des Villes", "opening_hours": "Tu-Fr 09:00-12:00; Tu,We,Fr 14:00-19:00; Th 15:00-19:00; Sa 10:00-12:00,14:00-18:00", "payment:mastercard": "yes", "payment:visa": "yes", "phone": "+33 4 78 27 22 41", "ref:FR:SIRET": "82448994200022", "shop": "bicycle", "survey:date": "2020-11-14", "website": "https://www.cyclesveran.fr/", "wheelchair": "yes"}}, {"type": "node", "id": 247265905, "lat": 45.7367339, "lon": 4.8674522, "tags": {"brand": "Aldi", "brand:wikidata": "Q41171373", "brand:wikipedia": "hu:Aldi Nord", "name": "Aldi", "opening_hours": "Mo-Sa 08:30-20:00; Su 08:30-12:30", "operator": "Aldi", "payment:cash": "yes", "payment:contactless": "yes", "payment:credit_cards": "yes", "payment:debit_cards": "yes", "phone": "+33 1 81 09 78 25", "shop": "supermarket", "website": "https://www.aldi.fr/magasins-et-horaires-d-ouverture.html/l/lyon/336-avenue-berthelot/3435568"}}, {"type": "node", "id": 248307326, "lat": 45.7326885, "lon": 4.8820856, "tags": {"addr:floor": "0", "brand": "Intermarch\u00e9 Super", "brand:wikidata": "Q98278038", "check_date": "2024-10-23", "contact:phone": "+33 4 72 78 04 00", "contact:website": "https://www.intermarche.com/magasins/11803/lyon-69008/infos-pratiques", "level": "0", "name": "Intermarch\u00e9 Super", "opening_hours": "Mo-Sa 08:30-20:30; Su 09:00-12:30", "operator": "Intermarch\u00e9", "payment:cash": "yes", "payment:contactless": "yes", "payment:credit_cards": "yes", "payment:debit_cards": "yes", "phone": "+33 4 72 78 04 00", "shop": "supermarket", "start_date": "2024-07-23", "wheelchair": "yes"}}, {"type": "node", "id": 249331843, "lat": 45.742783, "lon": 4.8502859, "tags": {"brand": "Franprix", "brand:wikidata": "Q2420096", "brand:wikipedia": "fr:Franprix", "name": "Franprix", "opening_hours": "Mo-Su 07:30-21:00", "operator": "Franprix", "ref:FR:SIRET": "50006504000015", "shop": "convenience", "website": "https://www.franprix.fr/magasins/1136"}}, {"type": "node", "id": 249331849, "lat": 45.7472501, "lon": 4.8669996, "tags": {"amenity": "fuel", "brand": "Avia", "brand:wikidata": "Q300147", "brand:wikipedia": "de:Avia International", "check_date": "2024-06-28", "compressed_air": "yes", "fuel:diesel": "yes", "fuel:e10": "yes", "fuel:octane_95": "yes", "hgv:lanes": "yes", "name": "Avia", "opening_hours": "24/7", "operator": "Avia", "ref:FR:SIRET": "35286063902674", "ref:FR:prix-carburants": "69003012", "shop": "convenience", "source": "Minist\u00e8re de l'Economie, de l'Industrie et du Num\u00e9rique - 03/2020", "toilets": "yes", "vending": "fuel", "vending_machine": "fuel", "wheelchair": "yes"}}, {"type": "node", "id": 249546560, "lat": 45.7561653, "lon": 4.815236, "tags": {"name": "Sarl Ayadi", "shop": "convenience"}}, {"type": "node", "id": 249718449, "lat": 45.7524329, "lon": 4.8458914, "tags": {"brand": "Naturalia", "brand:wikidata": "Q3337081", "brand:wikipedia": "fr:Naturalia", "check_date:opening_hours": "2024-09-03", "name": "Naturalia", "opening_hours": "Mo-Sa 09:00-20:00; Su 09:00-12:45", "organic": "only", "phone": "+33 4 72 94 40 65", "ref:FR:SIRET": "30247464801670", "shop": "supermarket", "start_date": "2017-03-10", "website": "https://magasins.naturalia.fr/naturalia/fr/store/france/auvergne-rhone-alpes/rhone/lyon/lyon-jean-jaures/3908", "wheelchair": "yes"}}, {"type": "node", "id": 250282574, "lat": 45.760959, "lon": 4.8565595}, {"type": "node", "id": 251239532, "lat": 45.7433659, "lon": 4.8857189, "tags": {"name": "L\u2019\u00c9picerie du 33B", "opening_hours": "Mo-Fr 07:30-14:45,17:00-19:00", "shop": "convenience"}}, {"type": "node", "id": 252333267, "lat": 45.7591899, "lon": 4.8272675, "tags": {"check_date": "2023-11-02", "name": "\u00c9picerie Bonaparte", "opening_hours": "Mo-Fr 10:00-11:30+; Sa-Su 10:00-01:00+", "ref:FR:SIRET": "87977269700014", "shop": "convenience"}}, {"type": "node", "id": 252521187, "lat": 45.7614267, "lon": 4.8354739, "tags": {"brand": "Printemps", "brand:wikidata": "Q1535260", "brand:wikipedia": "fr:Printemps (grands magasins)", "delivery": "no", "name": "Printemps", "opening_hours": "Mo-Th 10:00-19:00; Fr,Sa 10:00-19:30", "pickup:covid19": "yes", "ref:FR:SIRET": "50331476700115", "shop": "department_store"}}, {"type": "node", "id": 254350527, "lat": 45.7592189, "lon": 4.8351766, "tags": {"brand": "Lush", "brand:wikidata": "Q1585448", "brand:wikipedia": "en:Lush (company)", "check_date": "2024-02-14", "name": "Lush", "opening_hours": "Mo-Sa 10:00-19:30", "ref:FR:SIRET": "48043087500603", "shop": "cosmetics"}}, {"type": "node", "id": 254499718, "lat": 45.7569881, "lon": 4.8585358, "tags": {"amenity": "pub", "indoor_seating": "yes", "name": "Le Vivier Merle", "outdoor_seating": "sidewalk", "ref:FR:SIRET": "41317154700057", "shop": "lottery", "smoking": "outside", "wheelchair": "no"}}, {"type": "node", "id": 257109604, "lat": 45.7464762, "lon": 4.8244609, "tags": {"brand": "Le Petit Casino", "brand:wikidata": "Q89029249", "name": "Le Petit Casino", "operator": "Casino", "shop": "convenience"}}, {"type": "node", "id": 268130821, "lat": 45.7325035, "lon": 4.8807716, "tags": {"amenity": "fuel", "brand": "Total Access", "brand:wikidata": "Q154037", "brand:wikipedia": "fr:Total (entreprise)", "compressed_air": "yes", "fuel:diesel": "yes", "fuel:e10": "yes", "fuel:octane_98": "yes", "name": "Relais Total Lyon Mermoz", "operator": "Total", "ref:FR:prix-carburants": "69008008", "shop": "convenience;gas", "source": "Minist\u00e8re de l'Economie, de l'Industrie et du Num\u00e9rique - 08/04/2018", "toilets": "yes", "vending": "fuel", "vending_machine": "fuel"}}, {"type": "node", "id": 270298901, "lat": 45.7302662, "lon": 4.8852968, "tags": {"diet:halal": "yes", "email": "contact@boucherie-du-soleil.fr", "name": "Le Soleil du 8\u00e8me", "phone": "+33 4 78 76 25 56", "shop": "convenience", "website": "https://boucherie-mermoz.fr/"}}, {"type": "node", "id": 270470628, "lat": 45.7690645, "lon": 4.8572144, "tags": {"alt_name": "Cerise et Potiron Brotteaux", "brand": "Cerise et Potiron", "brand:wikidata": "Q91634572", "contact:facebook": "https://www.facebook.com/cerisetpotiron/", "name": "Cerise et Potiron", "opening_hours": "Mo-Sa 08:30-20:30, Su 08:30-12:45", "phone": "+33 4 78 24 22 01", "ref:FR:SIRET": "44905413900083", "shop": "greengrocer", "website": "https://www.cerise-et-potiron.fr/", "wheelchair": "yes"}}, {"type": "node", "id": 270479913, "lat": 45.7689986, "lon": 4.8547264, "tags": {"shop": "vacant", "was:alt_name": "Pharmacie REMOND", "was:amenity": "pharmacy", "was:name": "Pharmacie de S\u00e8ze", "was:ref:FR:FINESS": "690021001", "was:ref:FR:SIRET": "48461568700015"}}, {"type": "node", "id": 270479924, "lat": 45.7689425, "lon": 4.8557102, "tags": {"brand": "Utile", "brand:wikidata": "Q2529029", "brand:wikipedia": "fr:Syst\u00e8me U", "name": "Utile", "opening_hours": "Mo,Tu,Th,Fr,Sa 07:00-21:00; We 07:00-20:30; Su 08:00-13:00", "ref:FR:SIRET": "40523933600010", "shop": "convenience", "website": "https://magasins.utile-upf.fr/129-utile-lyon-seze"}}, {"type": "node", "id": 271244801, "lat": 45.7598651, "lon": 4.8425324, "tags": {"brand": "Le Petit Casino", "brand:wikidata": "Q2670967", "name": "Le Petit Casino de Libert\u00e9", "opening_hours": "Mo-Su 08:00-22:00", "shop": "convenience", "survey:date": "2023-09-01"}}, {"type": "node", "id": 273204887, "lat": 45.7624072, "lon": 4.8342714, "tags": {"brand": "Zadig & Voltaire", "brand:wikidata": "Q3574548", "brand:wikipedia": "fr:Zadig & Voltaire", "name": "Zadig & Voltaire", "opening_hours": "Mo-Sa 10:00-19:00", "shop": "clothes", "survey:date": "2023-06-18"}}, {"type": "node", "id": 273209129, "lat": 45.7595615, "lon": 4.8322113, "tags": {"name": "By Johanne", "opening_hours": "Mo-Sa 10:00-19:00", "ref:FR:SIRET": "50062971200075", "shop": "clothes", "website": "http://www.by-johanne.com"}}, {"type": "node", "id": 273209133, "lat": 45.7594088, "lon": 4.833255, "tags": {"brand": "Panerai", "brand:wikidata": "Q1475590", "check_date:opening_hours": "2024-05-16", "name": "Panerai", "opening_hours:signed": "no", "shop": "watches", "website": "https://www.panerai.com"}}, {"type": "node", "id": 273211849, "lat": 45.758956, "lon": 4.8340461, "tags": {"shop": "vacant", "was:amenity": "pharmacy", "was:name": "Pharmacie Reboul"}}, {"type": "node", "id": 317208003, "lat": 45.7523478, "lon": 4.8297116, "tags": {"name": "Maison Cot.", "opening_hours": "Mo-Fr 10:30-13:00,14:00-19:00; Sa 10:30-19:00", "shop": "furniture", "survey:date": "2023-08-27"}}, {"type": "node", "id": 321525263, "lat": 45.769393, "lon": 4.8420442, "tags": {"brand": "Vival", "brand:wikidata": "Q7937525", "name": "Vival", "opening_hours": "Tu-Sa 08:00-12:30,16:00-19:00; Su 08:00-13:00", "phone": "+33 5 62 06 10 74", "shop": "convenience", "website": "https://magasins.vival.fr/fr/vival-lyon-lyautey"}}, {"type": "node", "id": 325213191, "lat": 45.7462477, "lon": 4.8865951, "tags": {"check_date": "2024-03-06", "name": "La maison \"Au bon accueil\"", "opening_hours:covid19": "off", "shop": "convenience"}}, {"type": "node", "id": 388179387, "lat": 45.7500568, "lon": 4.8864924, "tags": {"name": "Boucherie Traiteur du 3\u00e8me", "opening_hours": "su-mo off; tu-sa 06:15-12:30, 15:00-19:15", "phone": "+33 4 78 54 65 54", "ref:FR:SIRET": "51340347700013", "shop": "butcher", "source": "survey"}}, {"type": "node", "id": 388179388, "lat": 45.7501211, "lon": 4.8877964, "tags": {"name": "Collectif branche nature", "shop": "farm", "website": "https://www.collectif-montchat.fr/"}}, {"type": "node", "id": 388179389, "lat": 45.7501557, "lon": 4.8867875, "tags": {"name": "Fleuralyon", "ref:FR:SIRET": "32983338800021", "shop": "florist", "source": "survey"}}, {"type": "node", "id": 388179391, "lat": 45.7507053, "lon": 4.8878166, "tags": {"access:covid19": "yes", "name": "Boulangerie P\u00e2tisserie Maison Champeaud", "opening_hours": "Tu-Su 06:30-13:30, 15:30-19:30", "payment:cash": "yes", "payment:contactless": "yes", "payment:visa": "yes", "ref:FR:SIRET": "82173934900024", "shop": "bakery"}}, {"type": "node", "id": 408053118, "lat": 45.7371867, "lon": 4.8240222, "tags": {"amenity": "fuel", "brand": "Avia", "brand:wikidata": "Q300147", "brand:wikipedia": "fr:Avia International", "compressed_air": "yes", "fuel:diesel": "yes", "fuel:lpg": "yes", "fuel:octane_95": "yes", "fuel:octane_98": "yes", "hgv:lanes": "yes", "name": "Avia", "opening_hours": "24/7", "ref:FR:prix-carburants": "69007012", "shop": "gas", "source": "Minist\u00e8re de l'Economie, de l'Industrie et du Num\u00e9rique - 03/2020", "toilets": "yes"}}, {"type": "node", "id": 409257594, "lat": 45.7271443, "lon": 4.8626172, "tags": {"fax": "+33 4 78 75 84 47", "name": "Maison Mathieu", "opening_hours": "Mo-Su 06:00-20:30", "phone": "+33 4 78 75 74 61", "shop": "bakery"}}, {"type": "node", "id": 409269458, "lat": 45.7318999, "lon": 4.8593571, "tags": {"name": "Victorio", "phone": "+33 4 78 72 05 67", "ref:FR:SIRET": "31326067100018", "shop": "hairdresser", "unisex": "yes"}}, {"type": "node", "id": 409269460, "lat": 45.7319703, "lon": 4.8593175, "tags": {"name": "Campaillette", "opening_hours": "Tu-Su 07:00-20:00", "shop": "bakery"}}, {"type": "node", "id": 448657484, "lat": 45.7486224, "lon": 4.8820864, "tags": {"check_date": "2023-04-03", "name": "Eco Laverie", "opening_hours": "Mo-Su 07:00-21:00", "ref:FR:SIRET": "83393220500036", "self_service": "yes", "shop": "laundry", "source": "Local survey 24 July 2009"}}, {"type": "node", "id": 448657489, "lat": 45.7433541, "lon": 4.8771309, "tags": {"laundry_service": "no", "name": "Laverie", "opening_hours": "Mo-Su 07:00-21:00", "self_service": "yes", "shop": "laundry", "wheelchair": "limited"}}, {"type": "node", "id": 454178146, "lat": 45.7583045, "lon": 4.8458546, "tags": {"brand": "Franprix", "brand:wikidata": "Q2420096", "brand:wikipedia": "fr:Franprix", "name": "Franprix", "opening_hours": "Mo-Sa 07:30-21:00; Su 09:00-21:00", "operator": "Franprix", "ref:FR:SIRET": "50048862200019", "shop": "convenience", "wheelchair": "yes"}}, {"type": "node", "id": 470796702, "lat": 45.7307708, "lon": 4.8854261, "tags": {"shop": "laundry"}}, {"type": "node", "id": 471990201, "lat": 45.7814465, "lon": 4.8335273, "tags": {"brand": "Franprix", "brand:wikidata": "Q2420096", "brand:wikipedia": "fr:Franprix", "check_date:opening_hours": "2023-04-12", "name": "Franprix", "opening_hours": "Mo-Sa 07:30-21:00; Su 09:00-13:00", "operator": "Franprix", "ref:FR:SIRET": "47889733300017", "shop": "supermarket", "website": "https://www.franprix.fr/magasins/5671"}}, {"type": "node", "id": 474345949, "lat": 45.7414938, "lon": 4.8601477, "tags": {"addr:postcode": "69008", "addr:street": "Rue de l'\u00c9pargne", "branch": "Lyon", "brand": "Bricorama", "brand:wikidata": "Q2925146", "brand:wikipedia": "fr:Bricorama", "internet_access": "no", "level": "0", "name": "Bricorama Lyon 8", "opening_hours": "Mo-Sa 09:00-19:30; Su 09:00-13:00", "operator": "Bricorama", "payment:mastercard": "yes", "payment:visa": "yes", "phone": "+33472785350", "ref:FR:SIRET": "87826234400012", "shop": "doityourself", "website": "https://www.bricorama.fr/magasins/bricorama-lyon.html", "wheelchair": "yes"}}, {"type": "node", "id": 475104446, "lat": 45.7503553, "lon": 4.8650677, "tags": {"name": "Asie Exotic", "opening_hours": "Mo-Sa 09:00-19:20; Su 09:00-14:00", "shop": "convenience", "wheelchair": "yes"}}, {"type": "node", "id": 494260937, "lat": 45.756284, "lon": 4.8148801}, {"type": "node", "id": 494260938, "lat": 45.756329, "lon": 4.8149247}, {"type": "node", "id": 494260939, "lat": 45.7563328, "lon": 4.814917}, {"type": "node", "id": 494260940, "lat": 45.7564171, "lon": 4.8149989}, {"type": "node", "id": 494260952, "lat": 45.7562104, "lon": 4.8150465}, {"type": "node", "id": 494260953, "lat": 45.7562439, "lon": 4.8150837}, {"type": "node", "id": 494260954, "lat": 45.756291, "lon": 4.8151367}, {"type": "node", "id": 506071059, "lat": 45.7479004, "lon": 4.8806847, "tags": {"access:covid19": "no", "check_date": "2023-05-22", "delivery:covid19": "no", "email": "aufournildemontchat@hotmail.fr", "indoor_seating": "no", "name": "Au fournil de Montchat", "opening_hours": "Mo-Fr 06:00-20:00; Sa 06:00-19:30; Su off", "outdoor_seating": "no", "phone": "+33 478547049", "ref:FR:SIRET": "45018599600011", "shop": "bakery", "source": "Local survey 22 September 2009", "takeaway": "only", "website": "https://au-fournil-de-montchat.miam-express.com/", "wheelchair": "no"}}, {"type": "node", "id": 506914172, "lat": 45.7345985, "lon": 4.835767, "tags": {"contact:facebook": "https://www.facebook.com/pages/category/Bakery/Maison-H%C3%A9non-471533289549627/", "facebook": "471533289549627", "name": "Maison H\u00e9non", "opening_hours": "Mo-Su 06:00-20:00", "payment:cash": "yes", "payment:credit_cards": "yes", "shop": "bakery", "website": "http://www.maison-henon.com/", "wheelchair": "limited"}}, {"type": "node", "id": 506914964, "lat": 45.7298724, "lon": 4.8287524, "tags": {"name": "Aux Bouquets d'Amandine", "opening_hours": "Mo,Tu,Th-Sa 09:00-19:00; Su 09:00-13:00", "phone": "+33472729332", "shop": "florist", "wheelchair": "limited"}}, {"type": "node", "id": 506915540, "lat": 45.7300752, "lon": 4.8296343, "tags": {"shop": "vacant"}}, {"type": "node", "id": 508913080, "lat": 45.7594379, "lon": 4.8425928, "tags": {"name": "La Boulangerie Rouge", "opening_hours": "Mo-Fr 08:00-15:00", "shop": "bakery", "survey:date": "2020-07-01", "wheelchair": "yes"}}, {"type": "node", "id": 508913095, "lat": 45.7594508, "lon": 4.842192, "tags": {"name": "Boulangerie de la Libert\u00e9", "opening_hours": "Mo-Sa 07:00-19:30; Su 07:30-13:00", "ref:FR:SIRET": "51030758000017", "shop": "bakery", "survey:date": "2023-09-01"}}, {"type": "node", "id": 508913099, "lat": 45.7598056, "lon": 4.8478969, "tags": {"check_date": "2024-06-28", "name": "P\u00e9trin et Partage", "opening_hours": "Mo-Fr 06:30-19:30", "phone": "+33 9 80 63 54 84", "ref:FR:SIRET": "53337239700026", "shop": "bakery"}}, {"type": "node", "id": 508913109, "lat": 45.7620689, "lon": 4.834741, "tags": {"brand": "Maison Pozzoli", "contact:facebook": "https://www.facebook.com/pages/category/Bakery/Maison-Pozzoli-363368267012429/", "name": "Maison Pozzoli Presqu\u2019\u00eele", "opening_hours": "Mo-Fr 07:00-20:00, Sa 07:00-19:00", "opening_hours:url": "https://www.boulangerie-pozzoli.fr/boutiques/maison-pozzoli-presquile/", "organic": "yes", "phone": "+33 4 78 42 66 27", "ref:FR:SIRET": "38228515300013", "shop": "bakery", "website": "https://www.boulangerie-pozzoli.fr/"}}, {"type": "node", "id": 508913169, "lat": 45.7596072, "lon": 4.8491831, "tags": {"addr:housenumber": "223", "addr:postcode": "69003", "addr:street": "Rue Duguesclin", "contact:facebook": "https://www.facebook.com/Biscotte.BonPainetCie.Lyon/", "contact:instagram": "augustin.l.art.du.pain", "name": "Augustin", "opening_hours": "Mo-Fr 06:30-20:00; Sa 06:30-14:00; Su 06:30-13:00", "ref:FR:SIRET": "75295989000019", "shop": "bakery", "website": "https://www.les-pains-augustin.com"}}, {"type": "node", "id": 514115220, "lat": 45.729689, "lon": 4.8287642, "tags": {"brand": "Action", "brand:wikidata": "Q2634111", "name": "Action", "opening_hours": "Mo-Sa 08:30-20:00", "shop": "variety_store", "website": "https://www.action.com/fr-fr/points-de-vente/lyon/", "wheelchair": "yes"}}, {"type": "node", "id": 518972457, "lat": 45.7596925, "lon": 4.8425487, "tags": {"name": "Smeg", "note": "fixme", "shop": "kitchen"}}, {"type": "node", "id": 518972497, "lat": 45.7684751, "lon": 4.8362267, "tags": {"brand": "Maison Kayser", "contact:facebook": "https://www.facebook.com/pages/category/Bakery/Maison-Eric-Kayser-Lyon-430866860578755/", "contact:website": "http://www.maison-kayser.com", "level": "0", "name": "Boulangerie Eric Kayser Le Fournil de l'Op\u00e9ra", "opening_hours": "Mo-Sa 06:00-20:00", "opening_hours:url": "https://www.maison-kayser.com/fr/boulangeries/100003001-le-fournil-de-l-opera.html", "phone": "+33 4 78 29 96 99", "ref:FR:SIRET": "39353467200018", "shop": "bakery", "wheelchair": "limited"}}, {"type": "node", "id": 521232558, "lat": 45.7596504, "lon": 4.8471329, "tags": {"brand": "Vival", "brand:wikidata": "Q7937525", "name": "Vival", "opening_hours": "Mo-Fr 08:00-24:00; Sa-Su 00:00-02:00,08:00-24:00", "shop": "convenience", "website": "https://magasins.vival.fr/fr/vival-lyon-part-dieu"}}, {"type": "node", "id": 521232599, "lat": 45.759693, "lon": 4.8476819, "tags": {"check_date:opening_hours": "2024-04-17", "female": "yes", "male": "yes", "name": "Camille Albane Lyon Guichard", "opening_hours": "Mo-We 09:00-18:30; Th,Fr 09:00-19:30; Sa 09:00-17:30", "phone": "0478623773", "shop": "hairdresser", "wheelchair": "limited"}}, {"type": "node", "id": 528859236, "lat": 45.7590903, "lon": 4.8492856, "tags": {"brand": "Speed Queen", "brand:wikidata": "Q7575499", "brand:wikipedia": "en:Speed Queen", "check_date": "2023-07-10", "internet_access": "wlan", "name": "Laverie Speed Queen Lyon 3", "opening_hours": "Mo-Su 07:00-21:00", "payment:cash": "yes", "payment:credit_cards": "yes", "payment:visa": "yes", "phone": "+33610530234", "self_service": "yes", "shop": "laundry", "wheelchair": "yes"}}, {"type": "node", "id": 528859246, "lat": 45.7594429, "lon": 4.8441998, "tags": {"check_date": "2023-04-24", "check_date:opening_hours": "2023-04-06", "male": "yes", "name": "L'Atelier Vintage", "opening_hours:signed": "no", "shop": "hairdresser"}}, {"type": "node", "id": 528859248, "lat": 45.757916, "lon": 4.8430274, "tags": {"contact:facebook": "https://www.facebook.com/Boucherie-M%C3%A9diterran%C3%A9e-958439474279136/", "name": "Boucherie M\u00e9diterran\u00e9e", "opening_hours": "Tu-Sa 09:00-12:30,14:00-19:30 ; Su 08:30-12:30", "phone": "+33 9 82 24 61 42", "shop": "butcher", "website": "https://www.laboucheriem.fr/"}}, {"type": "node", "id": 529913053, "lat": 45.7840965, "lon": 4.8089816, "tags": {"addr:housenumber": "76", "branch": "Lyon Saint-Cyr", "brand": "Intermarch\u00e9 Super", "brand:wikidata": "Q98278038", "name": "Intermarch\u00e9 Super Lyon Saint-Cyr", "opening_hours": "Mo-Sa 08:30-21:00; Su 09:00-13:00", "phone": "+33 4 72 85 60 20", "shop": "supermarket", "website": "https://www.intermarche.com/magasins/11799/Lyon-69009/infos-pratiques", "wheelchair": "yes"}}, {"type": "node", "id": 533449566, "lat": 45.7584051, "lon": 4.8481496, "tags": {"brand": "Proxi", "brand:wikidata": "Q3408522", "brand:wikipedia": "fr:Proxi", "name": "Proxi", "opening_hours": "Mo-Su 08:30-24:00", "operator": "Proxi", "ref:FR:SIRET": "79139901700015", "shop": "convenience"}}, {"type": "node", "id": 534114171, "lat": 45.761829, "lon": 4.8465007, "tags": {"brand": "U Express", "brand:wikidata": "Q2529029", "brand:wikipedia": "en:Syst\u00e8me U", "contact:website": "https://www.magasins-u.com/magasin/uexpress-lyon3bonnel", "name": "U Express", "newspaper": "yes", "opening_hours": "Mo-Sa 08:30-21:00; Su 09:00-13:00", "operator": "Syst\u00e8me U", "phone": "+33 4 37 23 68 80", "ref:FR:SIRET": "48928980100024", "shop": "supermarket"}}, {"type": "node", "id": 534149655, "lat": 45.7598958, "lon": 4.8429101, "tags": {"contact:phone": "+33472160297", "female": "yes", "male": "yes", "name": "Color Nadine", "opening_hours": "Tu-Th 09:30-18:00; Fr,Sa 09:00-18:00", "ref:FR:SIRET": "80184590000019", "shop": "hairdresser"}}, {"type": "node", "id": 538249185, "lat": 45.7576442, "lon": 4.8356475}, {"type": "node", "id": 538249187, "lat": 45.7576371, "lon": 4.8356449}, {"type": "node", "id": 538249188, "lat": 45.7576769, "lon": 4.8354967}, {"type": "node", "id": 538249190, "lat": 45.7577386, "lon": 4.8357183}, {"type": "node", "id": 538249192, "lat": 45.757946, "lon": 4.8358094}, {"type": "node", "id": 538249193, "lat": 45.7577325, "lon": 4.8357414}, {"type": "node", "id": 538249197, "lat": 45.7574688, "lon": 4.8364274}, {"type": "node", "id": 538249198, "lat": 45.7574468, "lon": 4.8363569}, {"type": "node", "id": 538249199, "lat": 45.7574718, "lon": 4.836272}, {"type": "node", "id": 538249201, "lat": 45.7574638, "lon": 4.8362675}, {"type": "node", "id": 538249202, "lat": 45.7575105, "lon": 4.8360995, "tags": {"camera:mount": "wall", "camera:type": "dome", "man_made": "surveillance", "surveillance": "public", "surveillance:type": "camera", "surveillance:zone": "public"}}, {"type": "node", "id": 538249203, "lat": 45.7575184, "lon": 4.8361037}, {"type": "node", "id": 538249205, "lat": 45.7576003, "lon": 4.836222}, {"type": "node", "id": 538249206, "lat": 45.7579493, "lon": 4.8367093}, {"type": "node", "id": 538249207, "lat": 45.7579481, "lon": 4.8366848}, {"type": "node", "id": 538249208, "lat": 45.7579443, "lon": 4.8366778}, {"type": "node", "id": 538249210, "lat": 45.7579387, "lon": 4.8366724}, {"type": "node", "id": 538249211, "lat": 45.7578717, "lon": 4.8361832}, {"type": "node", "id": 538249212, "lat": 45.7578534, "lon": 4.8362755}, {"type": "node", "id": 538249213, "lat": 45.7578424, "lon": 4.8363356}, {"type": "node", "id": 538249215, "lat": 45.7580147, "lon": 4.8360565}, {"type": "node", "id": 538249216, "lat": 45.7579354, "lon": 4.8364651}, {"type": "node", "id": 538249221, "lat": 45.758061, "lon": 4.835673}, {"type": "node", "id": 538249223, "lat": 45.7580258, "lon": 4.8358321}, {"type": "node", "id": 538249224, "lat": 45.7581291, "lon": 4.8358781}, {"type": "node", "id": 538249225, "lat": 45.7581316, "lon": 4.8358852}, {"type": "node", "id": 538249227, "lat": 45.7581732, "lon": 4.8357203}, {"type": "node", "id": 538249231, "lat": 45.7590387, "lon": 4.8361119}, {"type": "node", "id": 538249232, "lat": 45.7581391, "lon": 4.8358857}, {"type": "node", "id": 538249234, "lat": 45.7583469, "lon": 4.8366369}, {"type": "node", "id": 538249235, "lat": 45.7582737, "lon": 4.8361598}, {"type": "node", "id": 538249237, "lat": 45.7581944, "lon": 4.8365684}, {"type": "node", "id": 538249246, "lat": 45.7585898, "lon": 4.8367353}, {"type": "node", "id": 538249265, "lat": 45.7590834, "lon": 4.8361414}, {"type": "node", "id": 538249267, "lat": 45.7587578, "lon": 4.836496}, {"type": "node", "id": 538249268, "lat": 45.7587988, "lon": 4.8365135}, {"type": "node", "id": 538249270, "lat": 45.7588215, "lon": 4.8364948}, {"type": "node", "id": 538249271, "lat": 45.7589905, "lon": 4.8365639}, {"type": "node", "id": 538249273, "lat": 45.7590027, "lon": 4.8365962}, {"type": "node", "id": 538249275, "lat": 45.7590445, "lon": 4.8366124}, {"type": "node", "id": 538249288, "lat": 45.7592811, "lon": 4.8362045}, {"type": "node", "id": 538249289, "lat": 45.7593326, "lon": 4.8361081}, {"type": "node", "id": 538249290, "lat": 45.7593476, "lon": 4.836115}, {"type": "node", "id": 538249291, "lat": 45.7593581, "lon": 4.8360936}, {"type": "node", "id": 538249294, "lat": 45.7593597, "lon": 4.8360982}, {"type": "node", "id": 538249295, "lat": 45.7593795, "lon": 4.8360855}, {"type": "node", "id": 538249296, "lat": 45.7593779, "lon": 4.8360805}, {"type": "node", "id": 538249298, "lat": 45.7593968, "lon": 4.8360829}, {"type": "node", "id": 538249300, "lat": 45.7594022, "lon": 4.836063}, {"type": "node", "id": 538249301, "lat": 45.7594183, "lon": 4.836164}, {"type": "node", "id": 538249302, "lat": 45.7593689, "lon": 4.8361927}, {"type": "node", "id": 538249304, "lat": 45.7591611, "lon": 4.8366252}, {"type": "node", "id": 538249306, "lat": 45.7592375, "lon": 4.8364928}, {"type": "node", "id": 538249307, "lat": 45.7598567, "lon": 4.8358791}, {"type": "node", "id": 538249311, "lat": 45.7598408, "lon": 4.836039}, {"type": "node", "id": 538249314, "lat": 45.7594976, "lon": 4.8366273}, {"type": "node", "id": 538249315, "lat": 45.7595084, "lon": 4.8365863}, {"type": "node", "id": 538249316, "lat": 45.7595402, "lon": 4.8365992}, {"type": "node", "id": 538249317, "lat": 45.7596283, "lon": 4.8362486}, {"type": "node", "id": 538249319, "lat": 45.7597524, "lon": 4.8362392}, {"type": "node", "id": 538249320, "lat": 45.7596658, "lon": 4.8367143}, {"type": "node", "id": 538249322, "lat": 45.7596786, "lon": 4.8366699}, {"type": "node", "id": 538249323, "lat": 45.7596474, "lon": 4.8366553}, {"type": "node", "id": 538249324, "lat": 45.7598277, "lon": 4.8361744}, {"type": "node", "id": 538249325, "lat": 45.7599441, "lon": 4.8362108}, {"type": "node", "id": 538249327, "lat": 45.7599417, "lon": 4.836302}, {"type": "node", "id": 538249328, "lat": 45.7598277, "lon": 4.8362673}, {"type": "node", "id": 538249336, "lat": 45.7586951, "lon": 4.8370268}, {"type": "node", "id": 538249337, "lat": 45.7586979, "lon": 4.8370118}, {"type": "node", "id": 538249339, "lat": 45.7586395, "lon": 4.8369879}, {"type": "node", "id": 538249340, "lat": 45.7586408, "lon": 4.8369812}, {"type": "node", "id": 538249341, "lat": 45.7581166, "lon": 4.8367674}, {"type": "node", "id": 538249342, "lat": 45.7581149, "lon": 4.8367763}, {"type": "node", "id": 538249343, "lat": 45.7587371, "lon": 4.8367924}, {"type": "node", "id": 538249345, "lat": 45.7586991, "lon": 4.8367769}, {"type": "node", "id": 538249346, "lat": 45.7589671, "lon": 4.8371098}, {"type": "node", "id": 538249347, "lat": 45.7589653, "lon": 4.837119}, {"type": "node", "id": 538249348, "lat": 45.7589067, "lon": 4.8370956}, {"type": "node", "id": 538249350, "lat": 45.7589036, "lon": 4.8371103}, {"type": "node", "id": 538249351, "lat": 45.7588307, "lon": 4.8370805}, {"type": "node", "id": 538249353, "lat": 45.7588315, "lon": 4.8370756}, {"type": "node", "id": 538249354, "lat": 45.7587693, "lon": 4.8370509}, {"type": "node", "id": 538249355, "lat": 45.7587684, "lon": 4.8370559}, {"type": "node", "id": 538249357, "lat": 45.7589932, "lon": 4.8368949}, {"type": "node", "id": 538249358, "lat": 45.758954, "lon": 4.836879}, {"type": "node", "id": 538249359, "lat": 45.7589568, "lon": 4.8368642}, {"type": "node", "id": 538249360, "lat": 45.7587404, "lon": 4.8367769}, {"type": "node", "id": 538249362, "lat": 45.7591004, "lon": 4.8369403}, {"type": "node", "id": 538249363, "lat": 45.7594222, "lon": 4.83707}, {"type": "node", "id": 538249364, "lat": 45.7594808, "lon": 4.8368384}, {"type": "node", "id": 538249366, "lat": 45.759451, "lon": 4.8368221}, {"type": "node", "id": 538249367, "lat": 45.7594619, "lon": 4.8367794}, {"type": "node", "id": 538249368, "lat": 45.7595859, "lon": 4.8368973}, {"type": "node", "id": 538249370, "lat": 45.7597135, "lon": 4.8367359}, {"type": "node", "id": 538249371, "lat": 45.7596654, "lon": 4.8369393}, {"type": "node", "id": 538249373, "lat": 45.7596783, "lon": 4.8368918}, {"type": "node", "id": 538249374, "lat": 45.7594865, "lon": 4.8373302}, {"type": "node", "id": 538249375, "lat": 45.7594884, "lon": 4.8373208}, {"type": "node", "id": 538249376, "lat": 45.759617, "lon": 4.8371498}, {"type": "node", "id": 538249378, "lat": 45.7595754, "lon": 4.837133}, {"type": "node", "id": 538249380, "lat": 45.7595315, "lon": 4.8371173}, {"type": "node", "id": 538249382, "lat": 45.759675, "lon": 4.8373695}, {"type": "node", "id": 538249383, "lat": 45.7596675, "lon": 4.8373724}, {"type": "node", "id": 538249385, "lat": 45.7596618, "lon": 4.8373742}, {"type": "node", "id": 538249386, "lat": 45.7596514, "lon": 4.8373958}, {"type": "node", "id": 538249387, "lat": 45.7596273, "lon": 4.8370927}, {"type": "node", "id": 538249390, "lat": 45.7599276, "lon": 4.8368453}, {"type": "node", "id": 538249392, "lat": 45.7599224, "lon": 4.8370195}, {"type": "node", "id": 538249393, "lat": 45.7598618, "lon": 4.8369841}, {"type": "node", "id": 538249407, "lat": 45.7599172, "lon": 4.8371949}, {"type": "node", "id": 538249408, "lat": 45.7598948, "lon": 4.837194}, {"type": "node", "id": 538249410, "lat": 45.7598919, "lon": 4.8373209}, {"type": "node", "id": 538249415, "lat": 45.7598823, "lon": 4.837319}, {"type": "node", "id": 538249416, "lat": 45.7598521, "lon": 4.8371789}, {"type": "node", "id": 538249421, "lat": 45.7598684, "lon": 4.8374227}, {"type": "node", "id": 539430204, "lat": 45.7575018, "lon": 4.8409316, "tags": {"name": "Chez Fran\u00e7ois", "opening_hours": "Tu-Sa 07:30-12:30,15:30-19:30, Su 08:00-13:00", "ref:FR:SIRET": "39797183900030", "shop": "butcher"}}, {"type": "node", "id": 539430205, "lat": 45.7583034, "lon": 4.8410213, "tags": {"addr:city": "Lyon", "addr:country": "FR", "addr:postcode": "69003", "check_date:opening_hours": "2024-04-19", "name": "Milpau", "opening_hours:signed": "no", "ref:FR:SIRET": "33764419900024", "shop": "clothes"}}, {"type": "node", "id": 541464215, "lat": 45.7567009, "lon": 4.8477256, "tags": {"addr:postcode": "69003", "name": "Boulangerie l'\u00c9dison", "opening_hours": "Tu-Th, Sa-Su 07:00-19:00; Fr 07:00-11:30, 12:30-19:00", "outdoor_seating": "no", "shop": "bakery", "wheelchair": "no"}}, {"type": "node", "id": 541464475, "lat": 45.7569536, "lon": 4.8494195, "tags": {"name": "Le Pain Ta Gone", "opening_hours": "Mo-Fr 07:00-19:30; Sa 07:00-14:00", "shop": "bakery", "wheelchair": "yes"}}, {"type": "node", "id": 546921135, "lat": 45.7567409, "lon": 4.8445477, "tags": {"brand": "Bahadourian", "contact:facebook": "https://www.facebook.com/bahadourian.epicerie", "name": "Bahadourian", "opening_hours": "Mo-Sa 07:30-19:30", "phone": "+33 4 78 60 32 10", "ref:FR:SIRET": "34358346400015", "shop": "supermarket", "website": "https://www.bahadourian.com/", "wikidata": "Q2879246"}}, {"type": "node", "id": 546921313, "lat": 45.7566025, "lon": 4.8449011, "tags": {"name": "Boulangerie P\u00e2tisserie de la Place", "shop": "bakery", "survey:date": "2020-11-24"}}, {"type": "node", "id": 564766061, "lat": 45.7378967, "lon": 4.8850972, "tags": {"name": "Superette Leptis", "phone": "+33 4 78 74 26 47", "shop": "convenience"}}, {"type": "node", "id": 564782207, "lat": 45.735806, "lon": 4.869595, "tags": {"email": "esmeraldaberthet@outlook.fr", "name": "Maison Clerc et Banette", "phone": "+33 9 53 05 45 59", "shop": "bakery"}}, {"type": "node", "id": 565478001, "lat": 45.7298447, "lon": 4.8284043}, {"type": "node", "id": 565481663, "lat": 45.7524321, "lon": 4.8685309, "tags": {"check_date": "2023-10-27", "name": "L'esprit livres", "opening_hours": "Tu-Fr 10:00-13:00,14:00-19:00; Sa 10:00-19:00", "payment:cash": "yes", "payment:mastercard": "yes", "payment:visa": "yes", "phone": "+33 4 72 91 69 50", "ref:FR:SIRET": "53236666300021", "shop": "books", "website": "https://www.lesprit-livre.fr/", "wheelchair": "yes"}}, {"type": "node", "id": 566628984, "lat": 45.7277969, "lon": 4.8311931}, {"type": "node", "id": 566628985, "lat": 45.7277921, "lon": 4.8311265}, {"type": "node", "id": 566628992, "lat": 45.7278083, "lon": 4.8313252}, {"type": "node", "id": 566628993, "lat": 45.7278204, "lon": 4.8312834}, {"type": "node", "id": 566628994, "lat": 45.7277777, "lon": 4.831258}, {"type": "node", "id": 566629002, "lat": 45.7278471, "lon": 4.8311148}, {"type": "node", "id": 566629003, "lat": 45.7278516, "lon": 4.8311774}, {"type": "node", "id": 566629004, "lat": 45.7278948, "lon": 4.8310306}, {"type": "node", "id": 566629019, "lat": 45.7283935, "lon": 4.8311724}, {"type": "node", "id": 566629128, "lat": 45.7282683, "lon": 4.8316003}, {"type": "node", "id": 566629129, "lat": 45.7283158, "lon": 4.83144}, {"type": "node", "id": 567027541, "lat": 45.7370131, "lon": 4.8238539}, {"type": "node", "id": 567027542, "lat": 45.7370001, "lon": 4.823889}, {"type": "node", "id": 567027543, "lat": 45.7369792, "lon": 4.8238965}, {"type": "node", "id": 567027544, "lat": 45.7369001, "lon": 4.8239241}, {"type": "node", "id": 567027545, "lat": 45.7368779, "lon": 4.8239238}, {"type": "node", "id": 567027546, "lat": 45.7368623, "lon": 4.8239216}, {"type": "node", "id": 567027547, "lat": 45.7368472, "lon": 4.8239176}, {"type": "node", "id": 567027548, "lat": 45.7368335, "lon": 4.8239106}, {"type": "node", "id": 567027549, "lat": 45.7368229, "lon": 4.8239045}, {"type": "node", "id": 567027550, "lat": 45.7368869, "lon": 4.8237496}, {"type": "node", "id": 567027551, "lat": 45.7370076, "lon": 4.8238687}, {"type": "node", "id": 567027586, "lat": 45.736302, "lon": 4.8284494}, {"type": "node", "id": 567027587, "lat": 45.7364129, "lon": 4.8289668}, {"type": "node", "id": 567027590, "lat": 45.7362382, "lon": 4.8288101}, {"type": "node", "id": 567027591, "lat": 45.7361708, "lon": 4.8287512}, {"type": "node", "id": 567027601, "lat": 45.7367217, "lon": 4.8292349}, {"type": "node", "id": 567027606, "lat": 45.7368515, "lon": 4.8289292}, {"type": "node", "id": 567332300, "lat": 45.7387703, "lon": 4.8292528}, {"type": "node", "id": 567332301, "lat": 45.738754, "lon": 4.8293427}, {"type": "node", "id": 567332302, "lat": 45.7388275, "lon": 4.8297219}, {"type": "node", "id": 567332303, "lat": 45.7387464, "lon": 4.8295725}, {"type": "node", "id": 567332304, "lat": 45.7388183, "lon": 4.8295965}, {"type": "node", "id": 567332305, "lat": 45.7387483, "lon": 4.8293719}, {"type": "node", "id": 567332309, "lat": 45.7387923, "lon": 4.829931}, {"type": "node", "id": 567332310, "lat": 45.7386938, "lon": 4.8298991}, {"type": "node", "id": 567332329, "lat": 45.7388822, "lon": 4.8293873}, {"type": "node", "id": 567332330, "lat": 45.7388925, "lon": 4.8293217}, {"type": "node", "id": 567332335, "lat": 45.7388465, "lon": 4.8294251}, {"type": "node", "id": 567371360, "lat": 45.7374514, "lon": 4.8299293}, {"type": "node", "id": 567371361, "lat": 45.7374272, "lon": 4.8302818}, {"type": "node", "id": 567371362, "lat": 45.7372101, "lon": 4.8301655}, {"type": "node", "id": 567371363, "lat": 45.7372651, "lon": 4.8299612}, {"type": "node", "id": 567371364, "lat": 45.7374214, "lon": 4.830045}, {"type": "node", "id": 567371390, "lat": 45.7375135, "lon": 4.8299607}, {"type": "node", "id": 571799725, "lat": 45.7279166, "lon": 4.8442715}, {"type": "node", "id": 571799731, "lat": 45.7281765, "lon": 4.8444212}, {"type": "node", "id": 571799732, "lat": 45.7281613, "lon": 4.8446188}, {"type": "node", "id": 571799733, "lat": 45.7281414, "lon": 4.8446157}, {"type": "node", "id": 571799734, "lat": 45.7278916, "lon": 4.8445747}, {"type": "node", "id": 571799735, "lat": 45.7278958, "lon": 4.8445296}, {"type": "node", "id": 571799736, "lat": 45.7279344, "lon": 4.8445372}, {"type": "node", "id": 571799737, "lat": 45.7279476, "lon": 4.8443848}, {"type": "node", "id": 571799738, "lat": 45.7279071, "lon": 4.8443795}, {"type": "node", "id": 571799742, "lat": 45.7281265, "lon": 4.8443651}, {"type": "node", "id": 571799743, "lat": 45.7281218, "lon": 4.8444128}, {"type": "node", "id": 571833146, "lat": 45.7263694, "lon": 4.8394053, "tags": {"amenity": "fuel", "brand": "Total Access", "brand:wikidata": "Q154037", "brand:wikipedia": "fr:Total (entreprise)", "compressed_air": "yes", "fuel:diesel": "yes", "fuel:e10": "yes", "fuel:octane_98": "yes", "name": "Total Access", "opening_hours": "24/7", "operator": "Total", "ref:FR:prix-carburants": "69007009", "shop": "convenience;gas", "source": "Minist\u00e8re de l'Economie, de l'Industrie et du Num\u00e9rique - 08/04/2018", "vending": "fuel", "vending_machine": "fuel"}}, {"type": "node", "id": 573267936, "lat": 45.742865, "lon": 4.8205741, "tags": {"brand": "Lidl", "brand:website": "http://www.lidl.fr", "brand:wikidata": "Q151954", "brand:wikipedia": "en:Lidl", "check_date:opening_hours": "2024-02-21", "name": "Lidl", "opening_hours": "Mo-Sa 08:30-20:30", "operator": "Lidl", "ref:FR:SIRET": "34326262204976", "shop": "supermarket", "source": "cadastre-dgi-fr source : Direction G\u00e9n\u00e9rale des Imp\u00f4ts - Cadastre. Mise \u00e0 jour : 2009", "wheelchair": "yes"}}, {"type": "node", "id": 580475760, "lat": 45.8005125, "lon": 4.8251822, "tags": {"brand": "Intermarch\u00e9 Express", "brand:wikidata": "Q98278043", "name": "Intermarch\u00e9 Express", "opening_hours": "Mo-Sa 08:30-20:30; Su 09:00-13:00", "shop": "supermarket"}}, {"type": "node", "id": 582425729, "lat": 45.8043668, "lon": 4.8352183, "tags": {"brand": "Intermarch\u00e9 Contact", "brand:wikidata": "Q3153200", "brand:wikipedia": "fr:Intermarch\u00e9", "name": "Intermarch\u00e9 Contact", "shop": "convenience"}}, {"type": "node", "id": 585345047, "lat": 45.756438, "lon": 4.8426275, "tags": {"addr:housenumber": "70", "addr:postcode": "69003", "addr:street": "Cours de la Libert\u00e9", "clothes": "sports", "description": "V\u00eatements et bagages", "name": "Au Vieux Campeur", "opening_hours": "Mo 11:00-19:00; Tu-Fr 11:00-19:30; Sa 10:00-19:00", "outdoor_seating": "no", "phone": "+33 4 78 60 81 00", "ref:FR:SIRET": "95851403600036", "shop": "sports", "survey:date": "2023-08-19", "website": "https://www.auvieuxcampeur.fr/boutiques/Lyon", "wheelchair": "yes"}}, {"type": "node", "id": 585345048, "lat": 45.756308, "lon": 4.8426422, "tags": {"books": "travel;maps", "name": "Au Vieux Campeur", "opening_hours": "Mo 11:00-19:00; Tu-Fr 11:00-19:30; Sa 10:00-19:00", "shop": "books", "survey:date": "2023-08-19", "website": "https://www.auvieuxcampeur.fr/boutiques/Lyon"}}, {"type": "node", "id": 585345049, "lat": 45.7572208, "lon": 4.8425234, "tags": {"addr:housenumber": "62/64", "addr:postcode": "69003", "addr:street": "Cours de la Libert\u00e9", "brand": "Au vieux campeur", "brand:wikidata": "Q2409646", "check_date:opening_hours": "2021-06-20", "description": "Chaussures multi-activit\u00e9s et ski nordique", "name": "Au vieux campeur", "opening_hours": "Mo 11:00-19:00; Tu-Fr 11:00-19:30; Sa 10:00-19:00", "outdoor_seating": "no", "phone": "+33 4 72 61 53 01", "ref:FR:SIRET": "95851403600077", "shop": "outdoor", "source": "cadastre-dgi-fr source : Direction G\u00e9n\u00e9rale des Imp\u00f4ts - Cadastre. Mise \u00e0 jour : 2009", "website": "https://www.auvieuxcampeur.fr/boutiques/Lyon"}}, {"type": "node", "id": 585345050, "lat": 45.757773, "lon": 4.8428234, "tags": {"brand": "Au vieux campeur", "brand:wikidata": "Q2409646", "brand:wikipedia": "fr:Au vieux campeur", "check_date:opening_hours": "2023-03-23", "description": "Couchage, nourriture et hygi\u00e8ne", "name": "Au Vieux Campeur", "opening_hours": "Mo 11:00-19:00; Tu-Fr 11:00-19:30; Sa 10:00-19:00", "ref:FR:SIRET": "95851403600085", "shop": "outdoor", "website": "https://www.auvieuxcampeur.fr/boutiques/Lyon"}}, {"type": "node", "id": 585345052, "lat": 45.758808, "lon": 4.8426992, "tags": {"addr:housenumber": "43", "addr:postcode": "69003", "addr:street": "Cours de la Libert\u00e9", "description": "Sports alpins", "name": "Au Vieux Campeur", "opening_hours": "Mo 11:00-19:00; Tu-Fr 11:00-19:30; Sa 10:00-19:00", "outdoor_seating": "no", "phone": "+33 4 78 60 81 00", "ref:FR:SIRET": "95851403600010", "shop": "sports", "website": "https://www.auvieuxcampeur.fr/boutiques/Lyon"}}, {"type": "node", "id": 600305155, "lat": 45.7361039, "lon": 4.8397522}, {"type": "node", "id": 600305156, "lat": 45.7362507, "lon": 4.8397659}, {"type": "node", "id": 600305161, "lat": 45.7360953, "lon": 4.8399205}, {"type": "node", "id": 600305162, "lat": 45.7362338, "lon": 4.8400352}, {"type": "node", "id": 600305163, "lat": 45.7361979, "lon": 4.8400241}, {"type": "node", "id": 600305164, "lat": 45.7361806, "lon": 4.8400188}, {"type": "node", "id": 600305165, "lat": 45.7361837, "lon": 4.839929}, {"type": "node", "id": 600305166, "lat": 45.7362039, "lon": 4.8399305}, {"type": "node", "id": 600305167, "lat": 45.7361482, "lon": 4.839925}, {"type": "node", "id": 600305169, "lat": 45.736145, "lon": 4.8400084}, {"type": "node", "id": 600305189, "lat": 45.7365814, "lon": 4.8400481}, {"type": "node", "id": 600305198, "lat": 45.7366601, "lon": 4.8400546}, {"type": "node", "id": 600305217, "lat": 45.7365757, "lon": 4.840179}, {"type": "node", "id": 635820286, "lat": 45.7374909, "lon": 4.8361901, "tags": {"addr:city": "Lyon", "addr:housenumber": "1", "addr:postcode": "69007", "addr:street": "Place Antoinette Fouque", "branch": "Lyon Gerland", "brand": "Auchan Supermarch\u00e9", "brand:wikidata": "Q105857776", "check_date:opening_hours": "2024-05-25", "name": "Auchan Supermarch\u00e9", "opening_hours": "Mo-Sa 08:30-21:00; Su 08:30-12:30,13:00-20:30", "operator": "Auchan", "payment:cards": "yes", "payment:cash": "yes", "payment:coins": "yes", "payment:credit_cards": "yes", "payment:debit_cards": "yes", "payment:mastercard": "yes", "payment:visa": "yes", "phone": "+33 4 37 65 38 80", "ref:FR:SIRET": "41040901502994", "shop": "supermarket", "website": "https://www.auchan.fr/magasins/supermarche/auchan-supermarche-lyon-gerland/s-1406"}}, {"type": "node", "id": 639645761, "lat": 45.7489934, "lon": 4.8475414, "tags": {"branch": "Lyon Saint Louis", "brand": "U Express", "brand:wikidata": "Q2529029", "brand:wikipedia": "fr:Syst\u00e8me U", "check_date:opening_hours": "2024-09-15", "name": "U Express", "opening_hours": "Mo-Sa 08:30-21:00; Su 08:30-12:45", "operator": "Super U", "phone": "+33 4 78 69 20 19", "shop": "supermarket", "website": "https://www.magasins-u.com/uexpress-lyonsaintlouis", "wheelchair": "yes"}}, {"type": "node", "id": 663238963, "lat": 45.7521096, "lon": 4.8384072, "tags": {"addr:city": "Lyon", "addr:country": "FR", "addr:housenumber": "33", "addr:postcode": "69007", "addr:street": "Rue Cavenne", "check_date": "2024-08-18", "check_date:opening_hours": "2023-12-30", "name": "Auto Ollier", "opening_hours:signed": "no", "ref:FR:SIRET": "42312540000014", "shop": "car_repair", "source": "cadastre-dgi-fr source : Direction G\u00e9n\u00e9rale des Imp\u00f4ts - Cadastre;mise \u00e0 jour : 2010", "wheelchair": "limited"}}, {"type": "node", "id": 665326479, "lat": 45.7642568, "lon": 4.8333657, "tags": {"brand": "Paul", "brand:wikidata": "Q3370417", "brand:wikipedia": "en:Paul (bakery)", "name": "Paul", "opening_hours:covid19": "Mo-Fr 08:00-15:00 ; Sa-Su 08:00-18:00", "phone": "+33 4 78 37 52 08", "ref:FR:SIRET": "75359400100020", "shop": "bakery"}}, {"type": "node", "id": 665331770, "lat": 45.7654721, "lon": 4.8331679, "tags": {"brand": "Alain Afflelou", "brand:wikidata": "Q2829511", "brand:wikipedia": "fr:Alain Afflelou (entreprise)", "name": "Alain Afflelou", "opening_hours": "Tu-Sa 09:30-19:00, Mo 14:00-19:00", "ref:FR:SIRET": "83482383300019", "shop": "optician", "source": "+33 4 78 27 14 04", "wheelchair": "limited"}}, {"type": "node", "id": 695641294, "lat": 45.7592593, "lon": 4.8416969, "tags": {"delivery:covid19": "yes", "name": "Le pressoir", "opening_hours": "Tu-Fr,Su 10:00-13:30, Tu-Sa 15:00-20:00, Sa 09:30-13:30", "ref:FR:SIRET": "75385861200025", "shop": "alcohol", "takeaway:covid19": "yes"}}, {"type": "node", "id": 712909162, "lat": 45.7484935, "lon": 4.8260323}, {"type": "node", "id": 712909199, "lat": 45.7484057, "lon": 4.825959}, {"type": "node", "id": 727319729, "lat": 45.7537859, "lon": 4.8877144, "tags": {"name": "La P\u00e9trie de Montchat", "opening_hours": "Mo-Sa 06:00-19:00; Su 06:00-12:00", "payment:cash": "yes", "payment:debit_cards": "yes", "phone": "+33 9 55 71 07 75", "shop": "bakery"}}, {"type": "node", "id": 734946156, "lat": 45.760048, "lon": 4.8369167, "tags": {"shop": "vacant", "was:name": "Cr\u00e9dit Agricole"}}, {"type": "node", "id": 767880811, "lat": 45.7778726, "lon": 4.8003924, "tags": {"brand": "Bosch Car Service", "name": "Perrin & Cie", "ref:FR:SIRET": "95650828700029", "shop": "car_repair"}}, {"type": "node", "id": 778122619, "lat": 45.7568126, "lon": 4.8550948}, {"type": "node", "id": 778122652, "lat": 45.7557914, "lon": 4.8574922}, {"type": "node", "id": 778122702, "lat": 45.7558945, "lon": 4.8576466}, {"type": "node", "id": 778123257, "lat": 45.7568127, "lon": 4.8550824}, {"type": "node", "id": 778123586, "lat": 45.7557905, "lon": 4.8576464}, {"type": "node", "id": 778124487, "lat": 45.7567392, "lon": 4.8548989}, {"type": "node", "id": 778124888, "lat": 45.7567058, "lon": 4.855096}, {"type": "node", "id": 778125504, "lat": 45.7567792, "lon": 4.8548461}, {"type": "node", "id": 778125839, "lat": 45.756768, "lon": 4.8550961}, {"type": "node", "id": 778126795, "lat": 45.7558953, "lon": 4.857492}, {"type": "node", "id": 778126939, "lat": 45.7568093, "lon": 4.8548395}, {"type": "node", "id": 778245205, "lat": 45.7683373, "lon": 4.842243}, {"type": "node", "id": 778245393, "lat": 45.7687568, "lon": 4.8422496}, {"type": "node", "id": 778246163, "lat": 45.7688233, "lon": 4.8422372}, {"type": "node", "id": 778247445, "lat": 45.7682698, "lon": 4.8422566}, {"type": "node", "id": 778250244, "lat": 45.7682786, "lon": 4.8423459}, {"type": "node", "id": 778252463, "lat": 45.7687487, "lon": 4.8421615}, {"type": "node", "id": 778252766, "lat": 45.7688152, "lon": 4.842149}, {"type": "node", "id": 778252980, "lat": 45.7683461, "lon": 4.8423323}, {"type": "node", "id": 778315516, "lat": 45.7669609, "lon": 4.8540023}, {"type": "node", "id": 778315743, "lat": 45.7668726, "lon": 4.8542549}, {"type": "node", "id": 778316496, "lat": 45.7670609, "lon": 4.8537522}, {"type": "node", "id": 778319205, "lat": 45.7667632, "lon": 4.8542755}, {"type": "node", "id": 778320485, "lat": 45.767382, "lon": 4.8539583}, {"type": "node", "id": 778323685, "lat": 45.7670857, "lon": 4.8537452}, {"type": "node", "id": 778323950, "lat": 45.7665785, "lon": 4.8539377}, {"type": "node", "id": 778325076, "lat": 45.766946, "lon": 4.8538816}, {"type": "node", "id": 778325536, "lat": 45.7666916, "lon": 4.8542889}, {"type": "node", "id": 778325991, "lat": 45.767045, "lon": 4.8537566}, {"type": "node", "id": 778326064, "lat": 45.7666154, "lon": 4.854304}, {"type": "node", "id": 778326094, "lat": 45.7669371, "lon": 4.8537863}, {"type": "node", "id": 778327297, "lat": 45.7669903, "lon": 4.8540951}, {"type": "node", "id": 778329109, "lat": 45.7669574, "lon": 4.8540033}, {"type": "node", "id": 778329320, "lat": 45.7665937, "lon": 4.8540882}, {"type": "node", "id": 778330758, "lat": 45.7669495, "lon": 4.8538811}, {"type": "node", "id": 778331440, "lat": 45.7668327, "lon": 4.8538218}, {"type": "node", "id": 778331587, "lat": 45.7672232, "lon": 4.8540466}, {"type": "node", "id": 778332131, "lat": 45.767353, "lon": 4.8536718}, {"type": "node", "id": 778335323, "lat": 45.7665741, "lon": 4.8538899}, {"type": "node", "id": 778336290, "lat": 45.767217, "lon": 4.8539848}, {"type": "node", "id": 778336811, "lat": 45.7669662, "lon": 4.854099}, {"type": "node", "id": 778336893, "lat": 45.7666049, "lon": 4.8541988}, {"type": "node", "id": 778337155, "lat": 45.7673788, "lon": 4.8539272}, {"type": "node", "id": 778721423, "lat": 45.7605183, "lon": 4.856647}, {"type": "node", "id": 778723282, "lat": 45.7431201, "lon": 4.8810082}, {"type": "node", "id": 778723597, "lat": 45.7545467, "lon": 4.8761242}, {"type": "node", "id": 778724219, "lat": 45.7603794, "lon": 4.8562695}, {"type": "node", "id": 778724755, "lat": 45.7623303, "lon": 4.8563111}, {"type": "node", "id": 778725216, "lat": 45.7561426, "lon": 4.8701437}, {"type": "node", "id": 778725248, "lat": 45.7624676, "lon": 4.8550343}, {"type": "node", "id": 778725679, "lat": 45.7561714, "lon": 4.870153}, {"type": "node", "id": 778725715, "lat": 45.7544423, "lon": 4.8759503}, {"type": "node", "id": 778725893, "lat": 45.7559644, "lon": 4.8702118}, {"type": "node", "id": 778726852, "lat": 45.7544418, "lon": 4.8761093}, {"type": "node", "id": 778727615, "lat": 45.7543819, "lon": 4.8759515}, {"type": "node", "id": 778727646, "lat": 45.761862, "lon": 4.8574635}, {"type": "node", "id": 778728053, "lat": 45.7617707, "lon": 4.8564136}, {"type": "node", "id": 778729618, "lat": 45.7560117, "lon": 4.8702302}, {"type": "node", "id": 778729700, "lat": 45.7561791, "lon": 4.8701457}, {"type": "node", "id": 778730210, "lat": 45.7548354, "lon": 4.8758694}, {"type": "node", "id": 778735340, "lat": 45.7431847, "lon": 4.8808125}, {"type": "node", "id": 778737859, "lat": 45.7608281, "lon": 4.8550314}, {"type": "node", "id": 778738122, "lat": 45.7612792, "lon": 4.8575698, "tags": {"camera:mount": "wall", "camera:type": "dome", "man_made": "surveillance", "operator": "Le Grand Lyon", "surveillance": "public", "surveillance:type": "camera", "surveillance:zone": "town"}}, {"type": "node", "id": 778739443, "lat": 45.7547265, "lon": 4.8758637}, {"type": "node", "id": 778740589, "lat": 45.7560685, "lon": 4.8702409}, {"type": "node", "id": 778741090, "lat": 45.7543832, "lon": 4.8761009}, {"type": "node", "id": 778741245, "lat": 45.7544819, "lon": 4.8761151}, {"type": "node", "id": 778749799, "lat": 45.7544414, "lon": 4.8758493}, {"type": "node", "id": 778751463, "lat": 45.7629098, "lon": 4.8549536}, {"type": "node", "id": 778752632, "lat": 45.7545476, "lon": 4.8758545}, {"type": "node", "id": 778752982, "lat": 45.7431909, "lon": 4.8809136}, {"type": "node", "id": 778754088, "lat": 45.7560448, "lon": 4.8703683}, {"type": "node", "id": 778756239, "lat": 45.743197, "lon": 4.8808802}, {"type": "node", "id": 778757521, "lat": 45.7559891, "lon": 4.8703472}, {"type": "node", "id": 778759372, "lat": 45.7431801, "lon": 4.8809858}, {"type": "node", "id": 778759570, "lat": 45.7431856, "lon": 4.8808842}, {"type": "node", "id": 778761607, "lat": 45.7545193, "lon": 4.8759703}, {"type": "node", "id": 778762646, "lat": 45.7543854, "lon": 4.875944}, {"type": "node", "id": 778763616, "lat": 45.7561353, "lon": 4.8701863}, {"type": "node", "id": 778764806, "lat": 45.7431698, "lon": 4.8809213}, {"type": "node", "id": 778765724, "lat": 45.7561222, "lon": 4.8702619}, {"type": "node", "id": 778766103, "lat": 45.7547438, "lon": 4.8759849}, {"type": "node", "id": 778766697, "lat": 45.7625778, "lon": 4.8562657}, {"type": "node", "id": 778767252, "lat": 45.7630196, "lon": 4.8561847}, {"type": "node", "id": 778768290, "lat": 45.7609104, "lon": 4.8546823}, {"type": "node", "id": 778769372, "lat": 45.755999, "lon": 4.8700409}, {"type": "node", "id": 778769518, "lat": 45.7546223, "lon": 4.8758586}, {"type": "node", "id": 778770209, "lat": 45.7623704, "lon": 4.855052}, {"type": "node", "id": 778770312, "lat": 45.7605062, "lon": 4.8565116}, {"type": "node", "id": 778771007, "lat": 45.7609227, "lon": 4.8565657}, {"type": "node", "id": 778773102, "lat": 45.7621905, "lon": 4.8538429}, {"type": "node", "id": 778773398, "lat": 45.7430899, "lon": 4.8808478}, {"type": "node", "id": 778774514, "lat": 45.7543826, "lon": 4.8760168}, {"type": "node", "id": 778777494, "lat": 45.7561843, "lon": 4.870117}, {"type": "node", "id": 778796771, "lat": 45.7330912, "lon": 4.8589628}, {"type": "node", "id": 778797019, "lat": 45.7306673, "lon": 4.8615121}, {"type": "node", "id": 778797593, "lat": 45.7330779, "lon": 4.8586404}, {"type": "node", "id": 778800669, "lat": 45.730846, "lon": 4.8602129}, {"type": "node", "id": 778802406, "lat": 45.7385826, "lon": 4.8727107}, {"type": "node", "id": 778807891, "lat": 45.7248877, "lon": 4.883406}, {"type": "node", "id": 778808634, "lat": 45.7384819, "lon": 4.8728684}, {"type": "node", "id": 778812115, "lat": 45.7308467, "lon": 4.8602739}, {"type": "node", "id": 778814368, "lat": 45.731024, "lon": 4.859975}, {"type": "node", "id": 778814764, "lat": 45.7307959, "lon": 4.8602006}, {"type": "node", "id": 778815573, "lat": 45.7331189, "lon": 4.8587359}, {"type": "node", "id": 778816993, "lat": 45.7331473, "lon": 4.8589714}, {"type": "node", "id": 778818250, "lat": 45.7246646, "lon": 4.8839135}, {"type": "node", "id": 778819581, "lat": 45.7332336, "lon": 4.8588611}, {"type": "node", "id": 778821267, "lat": 45.7307527, "lon": 4.8601268}, {"type": "node", "id": 778821593, "lat": 45.7247421, "lon": 4.8837374}, {"type": "node", "id": 778822257, "lat": 45.7307617, "lon": 4.8602006}, {"type": "node", "id": 778822647, "lat": 45.7306949, "lon": 4.8601537}, {"type": "node", "id": 778829243, "lat": 45.730862, "lon": 4.8599779}, {"type": "node", "id": 778829363, "lat": 45.7243049, "lon": 4.8833466}, {"type": "node", "id": 778831671, "lat": 45.7331104, "lon": 4.8590061}, {"type": "node", "id": 778833059, "lat": 45.7386933, "lon": 4.8729737}, {"type": "node", "id": 778835684, "lat": 45.7387035, "lon": 4.8729579}, {"type": "node", "id": 778838149, "lat": 45.7307638, "lon": 4.8601401}, {"type": "node", "id": 778838298, "lat": 45.73072, "lon": 4.8618243}, {"type": "node", "id": 778840013, "lat": 45.7308323, "lon": 4.8605602}, {"type": "node", "id": 778841264, "lat": 45.7310133, "lon": 4.8601505}, {"type": "node", "id": 778842146, "lat": 45.7306833, "lon": 4.8605473}, {"type": "node", "id": 778843992, "lat": 45.7309758, "lon": 4.8599332}, {"type": "node", "id": 778845381, "lat": 45.738633, "lon": 4.8730667}, {"type": "node", "id": 778846495, "lat": 45.7308818, "lon": 4.8600747}, {"type": "node", "id": 778846982, "lat": 45.7307986, "lon": 4.8601095}, {"type": "node", "id": 778848088, "lat": 45.7309945, "lon": 4.8600463}, {"type": "node", "id": 778848974, "lat": 45.7241469, "lon": 4.8835509}, {"type": "node", "id": 778849042, "lat": 45.7331613, "lon": 4.8586973}, {"type": "node", "id": 778850533, "lat": 45.7387349, "lon": 4.8729093}, {"type": "node", "id": 778853161, "lat": 45.7331273, "lon": 4.8589287}, {"type": "node", "id": 778863651, "lat": 45.7331368, "lon": 4.8589493}, {"type": "node", "id": 778870710, "lat": 45.7244942, "lon": 4.8830957}, {"type": "node", "id": 778871760, "lat": 45.7331236, "lon": 4.8589915}, {"type": "node", "id": 778871897, "lat": 45.7330161, "lon": 4.8586771}, {"type": "node", "id": 779116478, "lat": 45.772054, "lon": 4.8267923, "tags": {"brand": "Vival", "brand:wikidata": "Q7937525", "name": "Vival", "opening_hours": "Mo-Su 07:00-23:30", "operator": "Casino", "phone": "+33 5 58 42 86 58", "shop": "convenience", "website": "https://magasins.vival.fr/fr/vival-lyon-morel", "wheelchair": "yes"}}, {"type": "node", "id": 795554859, "lat": 45.7502817, "lon": 4.8412654}, {"type": "node", "id": 795556015, "lat": 45.7503348, "lon": 4.8417713}, {"type": "node", "id": 795563757, "lat": 45.7501287, "lon": 4.8415226}, {"type": "node", "id": 795566717, "lat": 45.7505891, "lon": 4.8416746}, {"type": "node", "id": 795570002, "lat": 45.7501712, "lon": 4.8414494}, {"type": "node", "id": 795571565, "lat": 45.7502305, "lon": 4.8413548}, {"type": "node", "id": 795586335, "lat": 45.7501738, "lon": 4.8414525}, {"type": "node", "id": 795587808, "lat": 45.750682, "lon": 4.841518}, {"type": "node", "id": 795592171, "lat": 45.7506105, "lon": 4.8417002}, {"type": "node", "id": 795592298, "lat": 45.7505841, "lon": 4.8414535}, {"type": "node", "id": 795596958, "lat": 45.7505352, "lon": 4.8414208}, {"type": "node", "id": 795599878, "lat": 45.750468, "lon": 4.8419314}, {"type": "node", "id": 828689579, "lat": 45.7854608, "lon": 4.795479, "tags": {"brand": "Lidl", "brand:website": "http://www.lidl.fr", "brand:wikidata": "Q151954", "brand:wikipedia": "fr:Lidl", "name": "Lidl", "opening_hours": "Mo-Sa 08:30-19:30", "operator": "Lidl", "ref:FR:SIRET": "34326262217119", "shop": "supermarket"}}, {"type": "node", "id": 828689634, "lat": 45.7867411, "lon": 4.7949801, "tags": {"brand": "Auchan", "diet:halal": "yes", "diet:kosher": "no", "name": "Auchan Supermarch\u00e9 La Duch\u00e8re", "opening_hours": "Mo-Sa 08:30-20:00; Su 08:30-12:30", "operator": "Auchan", "ref:FR:SIRET": "41040901503679", "shop": "supermarket", "website": "https://www.auchan.fr/magasins/supermarche-la-duchere-lyon/sl-1171", "wheelchair": "yes"}}, {"type": "node", "id": 828876035, "lat": 45.7589866, "lon": 4.8298542, "tags": {"branch": "de Chambonnet", "brand": "Le Petit Casino", "brand:wikidata": "Q89029249", "check_date": "2023-02-12", "internet_access": "wlan", "internet_access:fee": "no", "name": "Le Petit Casino", "opening_hours": "Mo,Tu,Th 09:00-21:00; Fr,Sa 09:00-22:00; Su 10:00-21:00", "operator": "Casino", "ref:FR:SIRET": "42826802330843", "shop": "convenience"}}, {"type": "node", "id": 831557159, "lat": 45.7457359, "lon": 4.8231349, "tags": {"check_date:opening_hours": "2024-02-21", "name": "Confluence Laverie", "opening_hours": "Mo-Su 07:00-20:30", "ref:FR:SIRET": "50813958100013", "self_service": "yes", "shop": "laundry", "source": "cadastre-dgi-fr source : Direction G\u00e9n\u00e9rale des Imp\u00f4ts - Cadastre. Mise \u00e0 jour : 2010"}}, {"type": "node", "id": 831557164, "lat": 45.7470426, "lon": 4.8248313, "tags": {"name": "Boulangerie M. et Mme. Torres", "ref:FR:SIRET": "87769180800019", "shop": "bakery", "source": "cadastre-dgi-fr source : Direction G\u00e9n\u00e9rale des Imp\u00f4ts - Cadastre. Mise \u00e0 jour : 2010"}}, {"type": "node", "id": 832449688, "lat": 45.7576926, "lon": 4.8115443, "tags": {"name": "StyleAV", "shop": "hairdresser", "source": "cadastre-dgi-fr source : Direction G\u00e9n\u00e9rale des Imp\u00f4ts - Cadastre. Mise \u00e0 jour : 2010"}}, {"type": "node", "id": 832463263, "lat": 45.7580028, "lon": 4.812189, "tags": {"brand": "Vision Plus", "brand:wikidata": "Q23752663", "name": "Vision Plus", "shop": "optician", "source": "cadastre-dgi-fr source : Direction G\u00e9n\u00e9rale des Imp\u00f4ts - Cadastre. Mise \u00e0 jour : 2010"}}, {"type": "node", "id": 832463265, "lat": 45.7580439, "lon": 4.8122694, "tags": {"name": "Blaya Vincent", "shop": "butcher", "source": "cadastre-dgi-fr source : Direction G\u00e9n\u00e9rale des Imp\u00f4ts - Cadastre. Mise \u00e0 jour : 2010"}}, {"type": "node", "id": 832463266, "lat": 45.7578022, "lon": 4.8117884, "tags": {"name": "Liberty's", "ref:FR:SIRET": "43424030500012", "shop": "clothes", "source": "cadastre-dgi-fr source : Direction G\u00e9n\u00e9rale des Imp\u00f4ts - Cadastre. Mise \u00e0 jour : 2010"}}, {"type": "node", "id": 832463267, "lat": 45.7579644, "lon": 4.812109, "tags": {"contact:facebook": "https://www.facebook.com/pg/boulangeriehenrigay", "name": "Maison Henri Gay", "opening_hours": "Mo-Sa 06:00-19:30; Su 06:00-18:30", "phone": "+33 4 78 25 43 79", "shop": "bakery", "website": "https://boulangeriehenrigay.fr"}}, {"type": "node", "id": 863999193, "lat": 45.7537525, "lon": 4.8913602, "tags": {"addr:floor": "0", "check_date": "2024-10-23", "diet:halal": "no", "level": "0", "name": "Maison Vessiere", "opening_hours": "Tu-Fr 07:00-13:00,15:00-19:00; Sa 07:30-13:30,15:00-19:00", "payment:cash": "yes", "payment:credit_cards": "yes", "phone": "+33 4 78 54 72 62", "ref:FR:SIRET": "43777902800012", "shop": "butcher"}}, {"type": "node", "id": 864608345, "lat": 45.7534382, "lon": 4.8910719, "tags": {"contact:facebook": "Fleuriste-lenchantement-526129257472224", "delivery:covid19": "yes", "email": "sylvie.lenchantement@orange.fr", "level": "0", "name": "L'enchantement", "opening_hours": "Mo 08:30-19:00; Tu-Sa 08:00-19:30; Su 08:30-13:00", "payment:debit_cards": "yes", "phone": "+33 4 78 53 17 10", "ref:FR:SIRET": "38436570600017", "shop": "florist", "takeaway:covid19": "yes", "website": "https://www.lenchantement.fr/", "wheelchair": "no"}}, {"type": "node", "id": 864608398, "lat": 45.7534744, "lon": 4.8908575, "tags": {"addr:floor": "0", "check_date": "2024-10-23", "level": "0", "name": "Boulangerie Jacquier", "opening_hours": "Mo-Sa 06:00-19:30; Su 06:00-12:30", "payment:cash": "yes", "payment:credit_cards": "yes", "payment:debit_cards": "yes", "phone": "+33 4 78 53 20 52", "ref:FR:SIRET": "33327453800011", "shop": "bakery", "source": "Local survey 14 Aug 2010"}}, {"type": "node", "id": 864608448, "lat": 45.7536204, "lon": 4.891131, "tags": {"brand": "Optic 2000", "brand:wikidata": "Q3354445", "brand:wikipedia": "fr:Optic 2000", "contact:facebook": "Optic2000lyonmontchat", "email": "montchat@optic2000lyon.fr", "name": "Optic 2000 M. Holl Didier", "opening_hours": "Tu-Fr 09:00-12:30,14:30-19:00; Sa 10:00-12:30,14:30-19:00", "operator": "M. Holl Didier", "phone": "+33478185162", "shop": "optician", "website": "https://www.optic2000.com/magasins/l/lyon-3-montchat/49-cours-richard-vitton/c02469"}}, {"type": "node", "id": 864608492, "lat": 45.7535985, "lon": 4.8910252, "tags": {"addr:floor": "0", "check_date": "2024-10-23", "level": "0", "name": "Bistro de la place Ronde", "opening_hours": "Mo-Fr 05:30-19:30; Sa 06:00-19:30; Su 06:00-12:30", "phone": "+33 9 75 53 10 09", "shop": "newsagent", "source": "Local survey 14 Aug 2010", "tobacco": "yes"}}, {"type": "node", "id": 931852471, "lat": 45.7379925, "lon": 4.8400497, "tags": {"name": "Garage Citro\u00ebn", "opening_hours": "Mo-Sa 11:45-14:00,18:45-22:00", "shop": "car_repair"}}, {"type": "node", "id": 935446487, "lat": 45.751215, "lon": 4.839532, "tags": {"brand": "Lidl", "brand:website": "http://www.lidl.fr", "brand:wikidata": "Q151954", "brand:wikipedia": "en:Lidl", "check_date": "2024-04-04", "name": "Lidl", "opening_hours": "Mo-Fr 08:30-20:30; Sa 08:30-20:30; Su 08:30-12:15", "operator": "Lidl", "ref:FR:SIRET": "34326262214348", "shop": "supermarket", "wheelchair": "yes"}}, {"type": "node", "id": 941643197, "lat": 45.7502514, "lon": 4.865014, "tags": {"name": "Boulangerie Nathalie & Marcel Bas", "opening_hours": "Mo-Fr 06:30-19:00; Su 07:00-12:30", "ref:FR:SIRET": "81787717800019", "shop": "bakery", "wheelchair": "yes"}}, {"type": "node", "id": 944072097, "lat": 45.744577, "lon": 4.848052, "tags": {"brand": "Midas", "brand:wikidata": "Q3312613", "brand:wikipedia": "en:Midas (automotive service)", "check_date:opening_hours": "2024-08-11", "contact:facebook": "https://www.facebook.com/MidasFr/", "name": "Midas Lyon Garibaldi", "opening_hours:signed": "no", "phone": "+33478725252", "ref:FR:SIRET": "39989315500016", "shop": "car_repair", "website": "https://www.midas.fr/stores/auvergne-rhone-alpes/rhone/lyon/lyon-garibaldi_1111"}}, {"type": "node", "id": 944078793, "lat": 45.730169, "lon": 4.8385684, "tags": {"brand": "Midas", "brand:wikidata": "Q3312613", "brand:wikipedia": "en:Midas (automotive service)", "contact:facebook": "https://www.facebook.com/MidasFr/", "name": "Midas Lyon Gerland", "opening_hours": "Mo-Fr 08:00-18:00", "phone": "+33472769443", "shop": "car_repair", "website": "https://www.midas.fr/stores/auvergne-rhone-alpes/rhone/lyon/lyon-gerland_1322"}}, {"type": "node", "id": 944084101, "lat": 45.734651, "lon": 4.839384, "tags": {"brand": "Spar", "brand:wikidata": "Q610492", "name": "Spar", "opening_hours": "Mo-Su 06:00-22:00", "operator": "Spar", "shop": "convenience"}}, {"type": "node", "id": 948277203, "lat": 45.754758, "lon": 4.8674124, "tags": {"alt_name": "Alexandre et Banette", "check_date:opening_hours": "2023-02-28", "chocolate": "no", "name": "L'isle aux Pains", "opening_hours": "Tu-Fr 07:00-19:30; Sa 07:00-19:00; Su 07:00-13:00", "organic": "no", "pastry": "yes", "payment:cash": "yes", "payment:contactless": "yes", "payment:mastercard": "yes", "payment:meal_voucher": "yes", "payment:visa": "yes", "produced_on_site": "yes", "shop": "bakery", "wheelchair": "yes"}}, {"type": "node", "id": 948281054, "lat": 45.7535122, "lon": 4.8679213, "tags": {"brand": "Carrefour City", "brand:wikidata": "Q2940187", "brand:wikipedia": "fr:Carrefour City", "check_date": "2024-10-27", "check_date:opening_hours": "2023-05-23", "name": "Carrefour City", "opening_hours": "Mo-Sa 07:00-21:00; Su 09:00-13:00", "operator": "Groupe Carrefour", "operator:wikidata": "Q3117359", "operator:wikipedia": "fr:Groupe Carrefour", "organic": "yes", "phone": "+33 4 78 53 18 45", "ref:FR:SIRET": "44791020900017", "shop": "supermarket", "website": "https://www.carrefour.fr/magasin/city-lyon-lacassagne", "wheelchair": "yes"}}, {"type": "node", "id": 948305665, "lat": 45.745418, "lon": 4.866563, "tags": {"brand": "Renault", "brand:wikidata": "Q6686", "brand:wikipedia": "fr:Renault", "contact:phone": "+33 478007478", "email": "garagelumiere@orange.fr", "name": "Garage Lumi\u00e8re", "opening_hours": "Mo-Th 07:30-12:00,13:30-18:30; Fr 07:30-12:00,13:30-18:00", "service:vehicle:air_conditioning": "yes", "service:vehicle:brakes": "yes", "service:vehicle:diagnostics": "yes", "service:vehicle:electrical": "yes", "service:vehicle:glass": "yes", "service:vehicle:inspection": "yes", "service:vehicle:oil_change": "yes", "service:vehicle:transmission": "yes", "shop": "car_repair", "website": "https://www.garagelumiere-lyon.fr/"}}, {"type": "node", "id": 948306742, "lat": 45.7449526, "lon": 4.8664424, "tags": {"name": "Barithel Gerard", "opening_hours": "Mo,Su off; Tu-Fr 06:00-12:30,15:15-19:30; Sa 06:00-13:00,14:30-19:30", "payment:credit_cards": "no", "payment:debit_cards": "yes", "phone": "+33 4 78 00 57 18", "ref:FR:SIRET": "82829181500011", "shop": "butcher", "wheelchair": "yes"}}, {"type": "node", "id": 948312597, "lat": 45.738667, "lon": 4.863093, "tags": {"name": "BH-Autoconseil", "ref:FR:SIRET": "50041594800016", "shop": "car_repair"}}, {"type": "node", "id": 948325297, "lat": 45.7397924, "lon": 4.8663054, "tags": {"addr:city": "Lyon", "addr:country": "FR", "addr:housenumber": "115", "addr:postcode": "69008", "addr:street": "Rue Marius Berliet", "brand": "Lidl", "brand:website": "http://www.lidl.fr", "brand:wikidata": "Q151954", "brand:wikipedia": "fr:Lidl", "name": "Lidl", "opening_hours": "Mo-Sa 08:30-20:30", "operator": "Lidl", "ref:FR:SIRET": "34326262217283", "shop": "supermarket", "website": "https://www.lidl.fr/s/fr-FR/supermarch%C3%A9s/lyon/115-avenue-marius-berliet/"}}, {"type": "node", "id": 948351200, "lat": 45.7366249, "lon": 4.8414571, "tags": {"name": "Garage Robert Peugeot", "ref:FR:SIRET": "40235514300015", "shop": "car_repair"}}, {"type": "node", "id": 956222244, "lat": 45.7566136, "lon": 4.8750371, "tags": {"brand": "Super U", "brand:wikidata": "Q2529029", "brand:wikipedia": "en:Syst\u00e8me U", "check_date": "2022-10-24", "contact:phone": "+33 4 72 91 80 20", "contact:website": "https://www.magasins-u.com/magasin/superu-lyonmaisonsneuves", "name": "Super U", "opening_hours": "Mo-Sa 08:30-20:30, Su 08:30-12:30", "operator": "Super U", "payment:mastercard": "yes", "payment:visa": "yes", "shop": "supermarket", "wheelchair": "yes"}}, {"type": "node", "id": 956973267, "lat": 45.7421873, "lon": 4.8213063}, {"type": "node", "id": 956973754, "lat": 45.7422552, "lon": 4.8211425}, {"type": "node", "id": 956975431, "lat": 45.7422348, "lon": 4.821348}, {"type": "node", "id": 956975546, "lat": 45.7422884, "lon": 4.8213927}, {"type": "node", "id": 956975891, "lat": 45.7423566, "lon": 4.821229}, {"type": "node", "id": 957056926, "lat": 45.7347962, "lon": 4.8182098}, {"type": "node", "id": 957056932, "lat": 45.7347855, "lon": 4.8182357}, {"type": "node", "id": 957057000, "lat": 45.7348097, "lon": 4.8179855}, {"type": "node", "id": 957057063, "lat": 45.7347193, "lon": 4.8179749}, {"type": "node", "id": 959179715, "lat": 45.7579897, "lon": 4.8344649}, {"type": "node", "id": 959179730, "lat": 45.7580222, "lon": 4.8345532}, {"type": "node", "id": 959179804, "lat": 45.7580372, "lon": 4.8344871}, {"type": "node", "id": 959179920, "lat": 45.7579747, "lon": 4.834531}, {"type": "node", "id": 976460018, "lat": 45.7699141, "lon": 4.8472781, "tags": {"brand": "V\u00e9lonaute", "brand:website": "https://www.velonaute.com/", "name": "V\u00e9lonaute T\u00eate d'Or", "opening_hours": "Tu-Sa 10:00-13:00,14:30-19:00", "ref:FR:SIRET": "51117337900013", "service:bicycle:repair": "yes", "service:bicycle:retail": "yes", "shop": "bicycle", "website": "https://www.velonaute.com/content/8-velonaute-tete-d-or-magasin-velos-de-ville-draisiennes-pliants-Lyon", "wheelchair": "no"}}, {"type": "node", "id": 983318761, "lat": 45.7685462, "lon": 4.8302022}, {"type": "node", "id": 983318794, "lat": 45.768505, "lon": 4.830086}, {"type": "node", "id": 983318884, "lat": 45.7686117, "lon": 4.830057}, {"type": "node", "id": 983319007, "lat": 45.7684765, "lon": 4.8301063}, {"type": "node", "id": 983319046, "lat": 45.7684908, "lon": 4.830219}, {"type": "node", "id": 983319154, "lat": 45.7685772, "lon": 4.8301929}, {"type": "node", "id": 983319168, "lat": 45.7685974, "lon": 4.8301868}, {"type": "node", "id": 983319184, "lat": 45.7685611, "lon": 4.8301977}, {"type": "node", "id": 983319199, "lat": 45.7685019, "lon": 4.8300904}, {"type": "node", "id": 983331347, "lat": 45.7685026, "lon": 4.8301013}, {"type": "node", "id": 983331412, "lat": 45.7686214, "lon": 4.8301813}, {"type": "node", "id": 983579881, "lat": 45.7797047, "lon": 4.8262673, "tags": {"brand": "Vival", "brand:wikidata": "Q7937525", "brand:wikipedia": "en:Vival (shop)", "check_date:opening_hours": "2023-12-09", "name": "Vival", "opening_hours": "Mo-Su 07:00-22:00", "operator": "Casino", "phone": "+33 6 28 02 12 86", "ref:FR:SIRET": "85057227200019", "shop": "convenience", "stroller": "yes", "website": "https://magasins.vival.fr/fr/s/vival-lyon-henon", "wheelchair": "yes"}}, {"type": "node", "id": 988178230, "lat": 45.776538, "lon": 4.8296931}, {"type": "node", "id": 988178231, "lat": 45.7765122, "lon": 4.8300019}, {"type": "node", "id": 988178233, "lat": 45.7765018, "lon": 4.8295345}, {"type": "node", "id": 988178235, "lat": 45.776474, "lon": 4.8294888}, {"type": "node", "id": 988178242, "lat": 45.7764906, "lon": 4.8296854}, {"type": "node", "id": 988178245, "lat": 45.7765218, "lon": 4.8299995}, {"type": "node", "id": 988178246, "lat": 45.7764929, "lon": 4.8295039}, {"type": "node", "id": 988267770, "lat": 45.7745954, "lon": 4.8269676, "tags": {"access:covid19": "yes", "check_date:opening_hours": "2024-07-21", "name": "Le Banquet", "opening_hours": "Mo-Sa 06:30-19:30", "organic": "yes", "payment:cards": "yes", "payment:cash": "yes", "payment:contactless": "yes", "ref:FR:SIRET": "43247144900012", "shop": "bakery", "source": "cadastre-dgi-fr source : Direction G\u00e9n\u00e9rale des Imp\u00f4ts - Cadastre. Mise \u00e0 jour : 2010", "wheelchair": "yes"}}, {"type": "node", "id": 989802370, "lat": 45.7536719, "lon": 4.8577454, "tags": {"brand": "Auchan Supermarch\u00e9", "name": "Auchan Supermarch\u00e9 Lyon F\u00e9lix Faure", "opening_hours": "Mo-Sa 08:00-21:00; Su 08:00-12:30, 13:00-20:30", "phone": "+33 4 37 42 84 00", "ref:FR:SIRET": "41040901503661", "shop": "supermarket", "website": "https://www.auchan.fr/magasins/supermarche-lyon-felix-faure/sl-1357", "wheelchair": "yes"}}, {"type": "node", "id": 1006896769, "lat": 45.7561817, "lon": 4.8473158, "tags": {"brand": "U Express", "brand:wikidata": "Q2529029", "brand:wikipedia": "fr:Syst\u00e8me U", "check_date": "2024-06-30", "name": "U Express", "opening_hours": "Mo-Sa 08:30-20:30; Su 09:00-13:00", "operator": "Syst\u00e8me U", "phone": "+33 4 37 45 45 35", "ref:FR:SIRET": "48950012400024", "shop": "supermarket", "website": "https://www.magasins-u.com/magasin/uexpress-saxevendome", "wheelchair": "yes"}}, {"type": "node", "id": 1013406775, "lat": 45.7543338, "lon": 4.8421691, "tags": {"name": "Qualit\u00e9 Market", "shop": "convenience"}}, {"type": "node", "id": 1028217346, "lat": 45.7787336, "lon": 4.8001251, "tags": {"brand": "LDLC", "brand:website": "https://www.ldlc.com/", "brand:wikidata": "Q3117461", "contact:city": "Lyon 9eme Arrondissement", "contact:facebook": "https://www.facebook.com/LDLC.Lyon.Vaise/", "contact:housenumber": "22", "contact:phone": "+33 4 26 68 49 00", "contact:postcode": "69009", "contact:street": "24 Rue De La Gare", "contact:website": "https://www.ldlc.com/magasins-ldlc/magasin-470024/69-ldlc-lyon-vaise/", "delivery": "yes", "email": "boutiquelyonvaise@ldlc.com", "name": "LDLC Lyon Vaise", "opening_hours": "Mo-Sa 10:00-19:00", "payment:american_express": "no", "payment:cheque": "yes", "ref:FR:SIRET": "40355418100079", "shop": "computer", "short_name": "LDLC", "website": "https://www.ldlc.com/magasins-ldlc/magasin-470024/69-ldlc-lyon-vaise/", "wheelchair": "yes"}}, {"type": "node", "id": 1029543032, "lat": 45.7496354, "lon": 4.8440923, "tags": {"alt_name": "V\u00e9lo Station Lyon Saxe", "brand": "Brompton Bicycle;Babboe;Butchers & Bicycles;Larry vs Harry;Douze;Tern", "contact:email": "info@lyoncyclechic.fr", "contact:email_1": "69lyon-saxe@velostation.com", "name": "Lyon Cycle Chic", "opening_hours": "Tu-Sa 09:00-19:00", "phone": "+33 4 72 70 34 61", "ref:FR:SIRET": "52333736800014", "second_hand": "no", "shop": "bicycle", "website": "http://www.lyoncyclechic.fr/", "website_1": "http://www.lyoncyclechic.fr/"}}, {"type": "node", "id": 1036574159, "lat": 45.774735, "lon": 4.8281236}, {"type": "node", "id": 1036574162, "lat": 45.77478, "lon": 4.8281682}, {"type": "node", "id": 1036574203, "lat": 45.7747347, "lon": 4.8279803}, {"type": "node", "id": 1036574257, "lat": 45.7747524, "lon": 4.8279837, "tags": {"addr:housenumber": "6", "source": "cadastre-dgi-fr source : Direction G\u00e9n\u00e9rale des Imp\u00f4ts - Cadastre. Mise \u00e0 jour : 2010"}}, {"type": "node", "id": 1036574263, "lat": 45.7747937, "lon": 4.8279917}, {"type": "node", "id": 1036574272, "lat": 45.774733, "lon": 4.8281568}, {"type": "node", "id": 1040126959, "lat": 45.7756753, "lon": 4.8276219, "tags": {"alt_name": "U Express Croix-Rousse", "brand": "U Express", "brand:wikidata": "Q2529029", "brand:wikipedia": "fr:Syst\u00e8me U", "level": "0", "name": "U Express", "opening_hours": "Mo-Sa 08:30-20:00; Su 09:00-13:00", "operator": "M. et Mme GELPI", "phone": "+33 4 78989074", "shop": "supermarket", "website": "https://www.magasins-u.com/uexpress-lyoncroixrousse", "wheelchair": "yes"}}, {"type": "node", "id": 1051082231, "lat": 45.7611871, "lon": 4.8122445}, {"type": "node", "id": 1116576271, "lat": 45.781883, "lon": 4.820749}, {"type": "node", "id": 1116576327, "lat": 45.78186, "lon": 4.820889}, {"type": "node", "id": 1116577319, "lat": 45.781892, "lon": 4.820892}, {"type": "node", "id": 1116577821, "lat": 45.78173, "lon": 4.820736}, {"type": "node", "id": 1116578052, "lat": 45.781725, "lon": 4.820878}, {"type": "node", "id": 1141942672, "lat": 45.780856, "lon": 4.827063}, {"type": "node", "id": 1141942785, "lat": 45.780838, "lon": 4.827064}, {"type": "node", "id": 1141943162, "lat": 45.780839, "lon": 4.827151}, {"type": "node", "id": 1141943168, "lat": 45.780855, "lon": 4.827012}, {"type": "node", "id": 1141943350, "lat": 45.780696, "lon": 4.827155}, {"type": "node", "id": 1141943391, "lat": 45.780752, "lon": 4.827153}, {"type": "node", "id": 1141943820, "lat": 45.780634, "lon": 4.827157}, {"type": "node", "id": 1141943967, "lat": 45.780632, "lon": 4.827018}, {"type": "node", "id": 1149047201, "lat": 45.7432447, "lon": 4.8741485, "tags": {"access:covid19": "yes", "brand": "Monceau Fleurs", "brand:wikidata": "Q17629431", "check_date": "2023-06-24", "contact:email": "lumiere@monceaulyon.fr", "contact:instagram": "monceaufleurslumiere", "contact:phone": "+33 478752100", "delivery:covid19": "yes", "name": "Monceau Fleurs", "opening_hours": "Mo-Sa 09:00-20:00; Su 09:00-18:00", "payment:debit_cards": "yes", "shop": "florist", "source": "survey", "takeaway:covid19": "yes", "wheelchair": "yes"}}, {"type": "node", "id": 1149631806, "lat": 45.7610227, "lon": 4.8565474}, {"type": "node", "id": 1166362466, "lat": 45.7669768, "lon": 4.8457192, "tags": {"brand": "La Vie Claire", "brand:wikidata": "Q3213589", "brand:wikipedia": "fr:La Vie claire", "bulk_purchase": "yes", "check_date": "2023-07-10", "contact:facebook": "https://www.facebook.com/Lavieclaire", "name": "La Vie Claire Lyon Vend\u00f4me", "opening_hours": "Mo-Sa 09:00-20:00; Su 09:00-13:00", "organic": "only", "phone": "+33 4 78 24 02 37", "ref:FR:SIRET": "63200001401363", "shop": "convenience", "website": "https://www.lavieclaire.com/magasin-bio/lyon-vendome.html"}}, {"type": "node", "id": 1166379964, "lat": 45.7670366, "lon": 4.8463136, "tags": {"brand": "Franprix", "brand:wikidata": "Q2420096", "brand:wikipedia": "fr:Franprix", "check_date:opening_hours": "2022-08-29", "name": "Franprix", "opening_hours": "Mo-Sa 07:30-21:00; Su 09:00-13:00", "operator": "Franprix", "ref:FR:SIRET": "52255107600022", "shop": "convenience", "website": "https://www.franprix.fr/magasins/1125", "wheelchair": "yes"}}, {"type": "node", "id": 1166416734, "lat": 45.7681385, "lon": 4.8452934, "tags": {"brand": "Petit Casino", "brand:wikidata": "Q2670967", "check_date": "2023-07-10", "name": "Le Petit Casino de la Rue Vend\u00f4me", "opening_hours": "Mo-Sa 08:00-19:45", "operator": "Casino", "ref:FR:SIRET": "42826802337871", "shop": "convenience", "wheelchair": "yes"}}, {"type": "node", "id": 1171866997, "lat": 45.775975, "lon": 4.830367}, {"type": "node", "id": 1171868268, "lat": 45.776005, "lon": 4.830042}, {"type": "node", "id": 1195168618, "lat": 45.779254, "lon": 4.828588}, {"type": "node", "id": 1195168637, "lat": 45.779293, "lon": 4.828249}, {"type": "node", "id": 1195169156, "lat": 45.77913, "lon": 4.828053}, {"type": "node", "id": 1195169252, "lat": 45.77913, "lon": 4.828375}, {"type": "node", "id": 1195169306, "lat": 45.779254, "lon": 4.828607}, {"type": "node", "id": 1195169835, "lat": 45.779379, "lon": 4.828484}, {"type": "node", "id": 1195170072, "lat": 45.779294, "lon": 4.828177}, {"type": "node", "id": 1195170140, "lat": 45.77913, "lon": 4.82819}, {"type": "node", "id": 1195170594, "lat": 45.779293, "lon": 4.828218}, {"type": "node", "id": 1195170705, "lat": 45.779129, "lon": 4.828587}, {"type": "node", "id": 1195171071, "lat": 45.77929, "lon": 4.828588}, {"type": "node", "id": 1195171209, "lat": 45.779225, "lon": 4.828588}, {"type": "node", "id": 1195171272, "lat": 45.779338, "lon": 4.828587}, {"type": "node", "id": 1195171365, "lat": 45.779295, "lon": 4.828053}, {"type": "node", "id": 1195171442, "lat": 45.779378, "lon": 4.828588}, {"type": "node", "id": 1195171518, "lat": 45.779129, "lon": 4.828543}, {"type": "node", "id": 1195171590, "lat": 45.779225, "lon": 4.828606}, {"type": "node", "id": 1195171592, "lat": 45.77913, "lon": 4.828235}, {"type": "node", "id": 1195171595, "lat": 45.7792947, "lon": 4.828085}, {"type": "node", "id": 1195171634, "lat": 45.779291, "lon": 4.828053}, {"type": "node", "id": 1195171751, "lat": 45.779291, "lon": 4.828483}, {"type": "node", "id": 1215478378, "lat": 45.7513524, "lon": 4.84477, "tags": {"bulk_purchase": "yes", "check_date": "2024-09-01", "check_date:opening_hours": "2024-09-01", "contact:email": "commandes@epicerie-equitable.com", "contact:phone": "+33 4 37 28 07 71", "delivery:covid19": "yes", "level": "0", "name": "L'Epicerie Equitable", "opening_hours": "Mo-Fr 09:00-20:00; Sa 10:00-20:00", "organic": "yes", "ref:FR:SIRET": "47965571400042", "shop": "convenience", "toilets:wheelchair": "no", "website": "https://epicerie-equitable.com/", "wheelchair": "yes"}}, {"type": "node", "id": 1215756091, "lat": 45.7434706, "lon": 4.8217805, "tags": {"check_date:opening_hours": "2023-01-01", "name": "Le Saint-Honor\u00e9", "ref:FR:SIRET": "45139479500020", "shop": "bakery"}}, {"type": "node", "id": 1226431358, "lat": 45.7597199, "lon": 4.827187, "tags": {"brand": "Maison de la Presse", "brand:wikidata": "Q62085960", "name": "Maison de la Presse", "opening_hours": "Mo-Sa 07:30-19:30; Su 09:30-19:30", "phone": "+33 4 78 38 19 46", "ref:FR:SIRET": "31673242900444", "ref:vatin": "FR43316732429", "shop": "newsagent", "website": "https://www.maisondelapresse.com/magasin/MaisondelaPresse-69005-lyon5.html"}}, {"type": "node", "id": 1227747542, "lat": 45.7473192, "lon": 4.8675289, "tags": {"brand": "Franprix", "brand:wikidata": "Q2420096", "brand:wikipedia": "fr:Franprix", "name": "Franprix Lyon", "opening_hours": "Mo-Sa 07:30-21:00; Su 09:00-21:00", "operator": "Franprix", "ref:FR:SIRET": "49189222000022", "shop": "convenience", "website": "https://www.franprix.fr/magasins/5162", "wheelchair": "yes"}}, {"type": "node", "id": 1250951840, "lat": 45.7484393, "lon": 4.8396913, "tags": {"description": "organic flour Etc , leaven (often >18h)also,", "name": "Antoinette Pain & Brioche", "opening_hours": "Tu-Sa 08:00-19:30; Tu-Sa 08:00-15:00", "phone": "+33 4 72 72 99 69", "shop": "bakery", "website": "https://antoinettepainetbrioche.fr/", "wheelchair": "limited"}}, {"type": "node", "id": 1253632698, "lat": 45.777226, "lon": 4.83348}, {"type": "node", "id": 1253632766, "lat": 45.777224, "lon": 4.833622}, {"type": "node", "id": 1270820061, "lat": 45.7566431, "lon": 4.842593, "tags": {"name": "V\u00e9lonaute Libert\u00e9", "opening_hours": "Tu-Sa 10:00-13:00,14:30-19:00", "phone": "+33 4 78 95 39 77", "ref:FR:SIRET": "51117337900021", "service:bicycle:repair": "yes", "service:bicycle:retail": "yes", "shop": "bicycle", "website": "https://www.velonaute.com/content/49-Velonaute-magasin-specialise-velos-randonnee-voyage-vtc", "wheelchair": "limited"}}, {"type": "node", "id": 1275893077, "lat": 45.7591982, "lon": 4.8254756, "tags": {"check_date": "2023-07-12", "name": "Au Lavoir de St Georges", "opening_hours": "Mo-Su 06:00-22:00", "payment:coins": "yes", "payment:mastercard": "yes", "payment:notes": "yes", "payment:visa": "yes", "phone": "+33 4 83 43 38 48", "ref:FR:SIREN": "535274773", "ref:FR:SIRET": "53527477300022", "ref:vatin": "FR01535274773", "self_service": "yes", "shop": "laundry", "website": "http://www.aulavoirdesaintgeorges.sitew.fr/", "wheelchair": "no"}}, {"type": "node", "id": 1275893079, "lat": 45.7598504, "lon": 4.8267, "tags": {"addr:housenumber": "7", "addr:postcode": "69005", "addr:street": "Avenue Adolphe Max", "name": "Maison C\u00e9lestin", "opening_hours": "Su 09:00-12:45; Mo-Th 09:00-19:30; Fr,Sa 09:00-19:45", "phone": "+33 4 72 77 58 04", "ref:FR:SIRET": "44973944000047", "shop": "florist", "website": "https://www.maison-celestin.com"}}, {"type": "node", "id": 1275893081, "lat": 45.759523, "lon": 4.827279, "tags": {"contact:facebook": "https://www.facebook.com/pages/category/Butcher-Shop/Maison-fauci-1406198506289263/", "name": "Maison Fauci", "phone": "+33 4 78 37 37 84", "shop": "butcher"}}, {"type": "node", "id": 1275893089, "lat": 45.7596622, "lon": 4.8273778, "tags": {"brand": "Maison Kayser", "contact:facebook": "https://www.facebook.com/MaisonKayser/", "contact:instagram": "https://www.instagram.com/maisonkayser/?hl=fr", "contact:pinterest": "https://www.pinterest.com.au/maisonkayser/", "contact:twitter": "https://twitter.com/maison_ek", "contact:youtube": "https://www.youtube.com/channel/UC1rO5ROMrEzqoVunKUo_8cA", "name": "Epiason", "opening_hours": "Mo-Sa 06:30-20:00", "opening_hours:url": "https://www.maison-kayser.com/fr/boulangeries/100003003-lyon-l-epiason.html", "operator": "Eric Kayser", "shop": "bakery", "website": "https://www.maison-kayser.com"}}, {"type": "node", "id": 1280770394, "lat": 45.7589441, "lon": 4.8364534}, {"type": "node", "id": 1280770399, "lat": 45.759118, "lon": 4.836566}, {"type": "node", "id": 1286255005, "lat": 45.7444055, "lon": 4.8753589, "tags": {"contact:facebook": "https://www.facebook.com/pages/Boulangerie-Ghisalberti/", "diet:vegetarian": "yes", "name": "Maison Ghisalberti", "opening_hours": "Mo-Su 06:30-20:00", "pastry": "yes", "phone": "+33 4 78 54 38 82", "ref:FR:SIRET": "50464329700014", "shop": "bakery", "website": "https://maison-ghisalberti-lyon.eatbu.com/"}}, {"type": "node", "id": 1291379523, "lat": 45.7278327, "lon": 4.8781918, "tags": {"name": "La mie de pain", "shop": "bakery"}}, {"type": "node", "id": 1291379528, "lat": 45.7280497, "lon": 4.8779462, "tags": {"check_date:opening_hours": "2022-02-23", "name": "Boulangerie Lis\u00e9a", "opening_hours": "Mo-Sa 06:30-19:45, Su 06:30-13:00", "payment:cash": "yes", "payment:coins": "yes", "payment:visa": "yes", "ref:FR:SIRET": "42217421900028", "shop": "bakery"}}, {"type": "node", "id": 1297007326, "lat": 45.7265286, "lon": 4.8857215, "tags": {"name": "Mondial Saveur", "shop": "convenience"}}, {"type": "node", "id": 1297291897, "lat": 45.7667512, "lon": 4.8433834, "tags": {"disused:name": "Papa John's", "shop": "vacant"}}, {"type": "node", "id": 1297291898, "lat": 45.7747341, "lon": 4.8292948, "tags": {"check_date:opening_hours": "2023-07-06", "contact:facebook": "https://www.facebook.com/lauretteetmarinette/", "name": "Laurette & Marinette", "old_name": "Le boulanger de la Croix-Rousse by Victor", "opening_hours": "Mo-Sa 07:30-19:30", "organic": "yes;used", "phone": "+33 4 78 30 48 55", "ref:FR:SIRET": "80386090700028", "shop": "bakery", "wheelchair": "yes"}}, {"type": "node", "id": 1297291899, "lat": 45.7508524, "lon": 4.8454677, "tags": {"check_date": "2024-02-29", "diet:vegetarian": "yes", "name": "La Fabrique de Justine", "opening_hours": "Mo-Fr 06:30-19:30; Sa 07:30-14:00", "shop": "bakery", "wheelchair": "yes"}}, {"type": "node", "id": 1297291900, "lat": 45.775545, "lon": 4.8326925, "tags": {"male": "yes", "name": "Le 20 - Barber Shop", "opening_hours": "Mo 09:00-12:00,13:00-19:00; Tu-Fr 09:00-20:00; Sa 09:00-18:00; Su 08:00-13:00", "organic": "yes", "phone": "+33 4 26 18 26 00", "ref:FR:SIRET": "79056419900012", "shop": "hairdresser", "website": "https://le20barbershop.fr/"}}, {"type": "node", "id": 1297291902, "lat": 45.7668756, "lon": 4.8444654, "tags": {"name": "\u00d4 le Pain", "organic": "yes", "shop": "bakery", "wheelchair": "yes"}}, {"type": "node", "id": 1306463076, "lat": 45.7299111, "lon": 4.8759024, "tags": {"addr:floor": "0", "check_date": "2024-11-04", "level": "0", "name": "Maison Al Amir", "ref:FR:SIRET": "95370049900015", "shop": "bakery"}}, {"type": "node", "id": 1306463077, "lat": 45.7301802, "lon": 4.8852606, "tags": {"name": "Chaud le pain", "note": "terminal de cuisson", "shop": "bakery"}}, {"type": "node", "id": 1312385305, "lat": 45.767787, "lon": 4.8320065, "tags": {"name": "My Body Art", "opening_hours": "Mo-Sa 10:00-20:00", "phone": "+33 4 28 29 27 77", "shop": "tattoo", "website": "https://www.mybodyart.com/shops/tattoo-piercing-mba-lyon-terreaux/"}}, {"type": "node", "id": 1315269803, "lat": 45.7336698, "lon": 4.88228, "tags": {"name": "Sun Exotique", "opening_hours": "Mo-Su 10:00-20:00", "phone": "+33 4 78 75 88 37", "shop": "convenience", "website": "http://www.sunexotique.com"}}, {"type": "node", "id": 1316587323, "lat": 45.7335296, "lon": 4.8831297, "tags": {"brand": "Renault", "name": "Garage Ambroise Par\u00e9", "shop": "car"}}, {"type": "node", "id": 1326601559, "lat": 45.7775529, "lon": 4.8300857, "tags": {"name": "V\u00e9los et Compagnie", "opening_hours": "Tu-Fr 10:00-13:00,14:30-18:30; Sa 10:00-18:00", "ref:FR:SIRET": "53191576700010", "shop": "bicycle"}}, {"type": "node", "id": 1336704385, "lat": 45.7532407, "lon": 4.8551154, "tags": {"name": "F\u00e9lix Faure Market", "opening_hours": "Mo-Su 07:30-23:00", "ref:FR:SIRET": "39411922600022", "shop": "convenience", "wheelchair": "yes"}}, {"type": "node", "id": 1336704409, "lat": 45.748618, "lon": 4.8541845, "tags": {"name": "Tannourine", "shop": "convenience"}}, {"type": "node", "id": 1336704411, "lat": 45.7515002, "lon": 4.8543902, "tags": {"air_conditioning": "yes", "contact:phone": "+33478622041", "female": "yes", "male": "yes", "name": "Beautiful Day", "opening_hours": "Mo-Fr 09:00-19:00", "shop": "hairdresser"}}, {"type": "node", "id": 1336704415, "lat": 45.7485787, "lon": 4.8542865, "tags": {"male": "yes", "name": "new look", "opening_hours": "Mo-Sa 09:30-13:30,14:30-19:00", "ref:FR:SIRET": "82053759500010", "shop": "hairdresser"}}, {"type": "node", "id": 1336704424, "lat": 45.7478543, "lon": 4.855944, "tags": {"brand": "Lidl", "brand:website": "https://www.lidl.fr/", "brand:wikidata": "Q151954", "brand:wikipedia": "fr:Lidl", "contact:housenumber": "212", "name": "Lidl", "opening_hours": "Mo-Sa 08:30-20:30", "operator": "Lidl", "ref:FR:SIRET": "34326262215154", "shop": "supermarket"}}, {"type": "node", "id": 1336704427, "lat": 45.7495304, "lon": 4.8540371, "tags": {"branch": "Lyon Guilloti\u00e8re", "brand": "Monoprix", "brand:wikidata": "Q3321241", "brand:wikipedia": "fr:Monoprix (France)", "name": "Monoprix", "opening_hours": "Mo-Sa 08:30-21:30; Su 08:30-13:00", "operator": "Groupe Casino", "phone": "+33 4 37 37 22 80", "ref:FR:SIRET": "55208329702651", "shop": "supermarket", "website": "https://www.monoprix.fr/1350.html"}}, {"type": "node", "id": 1336704429, "lat": 45.7514029, "lon": 4.8546722, "tags": {"beauty": "nails", "name": "Karisa Ongles", "ref:FR:SIRET": "40137534000015", "shop": "beauty"}}, {"type": "node", "id": 1336704431, "lat": 45.751984, "lon": 4.8529821, "tags": {"name": "Le Petit Panier Gambetta", "ref:FR:SIRET": "79226882300020", "shop": "convenience", "wheelchair": "no"}}, {"type": "node", "id": 1336704719, "lat": 45.7526064, "lon": 4.8515023, "tags": {"name": "Le lit fran\u00e7ais", "opening_hours": "Mo 14:00-19:00; Tu-Sa 10:00-12:00,14:00-19:00", "shop": "bed"}}, {"type": "node", "id": 1336704720, "lat": 45.7517007, "lon": 4.8529466, "tags": {"addr:street": "Cadre Fleurs", "check_date:opening_hours": "2024-05-04", "name": "L'\u00e9chapp\u00e9e v\u00e9g\u00e9tale", "opening_hours": "Mo-Sa 09:00-20:00; Su,PH 09:00-19:00", "ref:FR:SIRET": "49133241700014", "shop": "florist", "wheelchair": "yes"}}, {"type": "node", "id": 1336704722, "lat": 45.7527814, "lon": 4.8512308, "tags": {"brand": "ALDI", "brand:wikidata": "Q41171373", "brand:wikipedia": "en:Aldi", "name": "ALDI", "opening_hours": "Mo-Sa 08:30-20:00; Su 08:30-12:30", "shop": "supermarket", "wheelchair": "yes"}}, {"type": "node", "id": 1336704724, "lat": 45.7527601, "lon": 4.8510669, "tags": {"contact:email": "info.lyon@sharm.fr", "contact:phone": "+33 4 78921547", "contact:website": "https://www.royaleclairage.fr/", "name": "Sharm Emsey Led", "opening_hours": "Mo 12:00-15:00, Tu-Fr 09:15-12:00, Tu-Th,Sa 13:00-18:45, Fr 15:00-18:45, Sa 10:00-12:00", "shop": "lighting", "wheelchair": "no"}}, {"type": "node", "id": 1336704725, "lat": 45.7527476, "lon": 4.8509709, "tags": {"access:covid19": "yes", "name": "Kimch\u00ef", "opening_hours": "Tu-Fr 10:00-13:00,14:30-19:00; Sa 10:00-19:00; Su 10:00-13:00", "ref:FR:SIRET": "48017710400019", "shop": "convenience", "website": "https://www.kimchilyon.com/", "wheelchair": "no"}}, {"type": "node", "id": 1337251375, "lat": 45.7455063, "lon": 4.8644733, "tags": {"access:covid19": "yes", "name": "Boulangerie Berlier", "opening_hours": "Mo-Fr 07:00-19:30; Sa 07:00-18:00; Su off", "ref:FR:SIRET": "83823634700012", "shop": "bakery"}}, {"type": "node", "id": 1337251379, "lat": 45.7483514, "lon": 4.8553474, "tags": {"name": "Le Pain du Roy", "ref:FR:SIRET": "33764501400024", "shop": "bakery"}},