{"version": 0.6, "generator": "Overpass API 0.7.62.1 084b4234", "osm3s": {"timestamp_osm_base": "2024-11-19T06:11:37Z", "copyright": "The data included in this document is from www.openstreetmap.org. The data is made available under ODbL."}, "elements": [{"type": "node", "id": 1339813801, "lat": 45.4736669, "lon": 4.5298153, "tags": {"addr:city": "Saint-Chamond", "addr:housenumber": "7", "addr:postcode": "42400", "addr:street": "Place de Savoie", "amenity": "bar", "name": "Bar Tabac Le Savoie", "shop": "tobacco"}}, {"type": "node", "id": 1479464206, "lat": 45.5174309, "lon": 4.5875166, "tags": {"amenity": "bar", "name": "Le Lorettois"}}, {"type": "node", "id": 1591704318, "lat": 45.49084, "lon": 4.534689}, {"type": "node", "id": 1591704337, "lat": 45.4908525, "lon": 4.53457}, {"type": "node", "id": 1591704448, "lat": 45.490894, "lon": 4.534577}, {"type": "node", "id": 1591704498, "lat": 45.490912, "lon": 4.534428}, {"type": "node", "id": 1591704527, "lat": 45.490917, "lon": 4.534702}, {"type": "node", "id": 1591704563, "lat": 45.490926, "lon": 4.534613}, {"type": "node", "id": 1591704661, "lat": 45.490961, "lon": 4.53462}, {"type": "node", "id": 1591704736, "lat": 45.490979, "lon": 4.534441}, {"type": "node", "id": 1969790408, "lat": 45.5462597, "lon": 4.5932223, "tags": {"amenity": "bar", "name": "La bigorne", "outdoor_seating": "yes", "smoking": "no"}}, {"type": "node", "id": 2067049859, "lat": 45.465984, "lon": 4.5113929, "tags": {"addr:city": "Saint-Chamond", "addr:housenumber": "1", "addr:postcode": "42400", "addr:street": "Rue Grange Roux", "amenity": "bar", "name": "Chez P\u00e9ppone", "outdoor_seating": "yes"}}, {"type": "node", "id": 2216436378, "lat": 45.4734495, "lon": 4.5173424, "tags": {"addr:city": "Saint-Chamond", "addr:housenumber": "9", "addr:postcode": "42400", "addr:street": "Rue Marc Seguin", "amenity": "bar", "name": "Caf\u00e9 Restaurant Le Phoenix", "outdoor_seating": "yes"}}, {"type": "node", "id": 2229197111, "lat": 45.4638421, "lon": 4.5037774, "tags": {"addr:city": "Saint-Chamond", "addr:housenumber": "2", "addr:postcode": "42400", "addr:street": "Rue Saint-Andr\u00e9", "amenity": "bar", "name": "Caf\u00e9 des sports"}}, {"type": "node", "id": 2229197119, "lat": 45.4643607, "lon": 4.5035334, "tags": {"addr:city": "Saint-Chamond", "addr:housenumber": "10", "addr:postcode": "42400", "addr:street": "Place Nationale", "amenity": "bar", "name": "Le Moderne"}}, {"type": "node", "id": 2244917449, "lat": 45.478117, "lon": 4.5119818, "tags": {"addr:city": "Saint-Chamond", "addr:housenumber": "9", "addr:postcode": "42400", "addr:street": "Place de la Halle", "amenity": "bar", "name": "Le 6 \u00e0 l'envers"}}, {"type": "node", "id": 2560111414, "lat": 45.2970582, "lon": 4.5605412, "tags": {"amenity": "bar", "name": "Bar le 2001", "outdoor_seating": "yes"}}, {"type": "node", "id": 2560111470, "lat": 45.2966681, "lon": 4.5588572, "tags": {"amenity": "bar", "name": "L'ami temps"}}, {"type": "node", "id": 3664777503, "lat": 45.4744144, "lon": 4.5137324, "tags": {"addr:city": "Saint-Chamond", "addr:housenumber": "7", "addr:postcode": "42400", "addr:street": "Rue Victor Hugo", "amenity": "bar", "name": "Le Bistrot", "outdoor_seating": "no"}}, {"type": "node", "id": 3966246243, "lat": 45.6014356, "lon": 4.5889049, "tags": {"addr:city": "Riverie", "addr:postcode": "69440", "addr:street": "Rue de la Barre", "amenity": "bar", "name": "La Ronde de Riverie", "smoking": "no"}}, {"type": "node", "id": 4081103802, "lat": 45.6027786, "lon": 4.5222626, "tags": {"addr:city": "Larajasse", "addr:housenumber": "177", "addr:postcode": "69590", "addr:street": "Route de l'Ind\u00e9pendance", "amenity": "bar", "name": "Chez Pat et Herv\u00e9", "phone": "+33478484260"}}, {"type": "node", "id": 5632261677, "lat": 45.2969611, "lon": 4.5606722, "tags": {"amenity": "bar", "name": "Caf\u00e9 du midi", "outdoor_seating": "yes"}}, {"type": "node", "id": 5696948138, "lat": 45.4741677, "lon": 4.5051582, "tags": {"addr:city": "Saint-Chamond", "addr:housenumber": "3", "addr:postcode": "42400", "addr:street": "Rue du Pr\u00e9sident Wilson", "amenity": "bar", "name": "Bar Le Wilson - Tabac - Presse", "outdoor_seating": "yes"}}, {"type": "node", "id": 5701583875, "lat": 45.6364246, "lon": 4.4621, "tags": {"addr:city": "Saint-Symphorien-sur-Coise", "addr:housenumber": "240", "addr:postcode": "69590", "addr:street": "Avenue Emmanuel Cl\u00e9ment", "amenity": "bar", "contact:facebook": "https://www.facebook.com/le21plat/", "email": "le21plat@gmail.com", "name": "21 Plat", "opening_hours": "We-Fr 09:30-23:00; Sa 09:30-12:30,16:30-23:00", "phone": "+33437220569", "ref:FR:SIRET": "81931292700018", "website": "http://le21plat.fr", "wheelchair": "yes"}}, {"type": "node", "id": 5707600426, "lat": 45.4750148, "lon": 4.5091373, "tags": {"addr:city": "Saint-Chamond", "addr:housenumber": "34", "addr:postcode": "42400", "addr:street": "Place de la Libert\u00e9", "amenity": "bar", "name": "Le Petit Vincennes", "outdoor_seating": "yes"}}, {"type": "node", "id": 5732151537, "lat": 45.7096015, "lon": 4.4924305, "tags": {"amenity": "bar", "name": "Bar-Restaurant Luni'K", "phone": "+33474706618"}}, {"type": "node", "id": 5961498096, "lat": 45.4730354, "lon": 4.5107464, "tags": {"addr:city": "Saint-Chamond", "addr:housenumber": "2", "addr:postcode": "42400", "addr:street": "Cours Adrien de Montgolfier", "amenity": "bar", "name": "Bar de la Marine"}}, {"type": "node", "id": 6070837662, "lat": 45.4720909, "lon": 4.5073215, "tags": {"addr:city": "Saint-Chamond", "addr:housenumber": "1", "addr:postcode": "42400", "addr:street": "Rue de Saint-\u00c9tienne", "amenity": "bar", "name": "Braci\u00e9rie"}}, {"type": "node", "id": 6108976034, "lat": 45.4854108, "lon": 4.5175591, "tags": {"addr:city": "Saint-Chamond", "addr:housenumber": "36", "addr:postcode": "42400", "addr:street": "Rue Font Rozet", "amenity": "bar", "name": "Bar du Clos Marquet"}}, {"type": "node", "id": 6132360237, "lat": 45.614182, "lon": 4.5001791, "tags": {"addr:city": "Larajasse", "addr:housenumber": "73", "addr:postcode": "69590", "addr:street": "Place de la Mairie", "amenity": "bar", "name": "Bar des Gones", "opening_hours": "Tu-Fr 07:00-22:00; Sa-Su 07:30-24:00", "phone": "+33656794471"}}, {"type": "node", "id": 6147565846, "lat": 45.4805151, "lon": 4.5256429, "tags": {"addr:city": "Saint-Chamond", "addr:housenumber": "41", "addr:postcode": "42400", "addr:street": "Grande Rue de Saint-Julien", "amenity": "bar", "name": "Le Parilly"}}, {"type": "node", "id": 6198981813, "lat": 45.4729415, "lon": 4.5109952, "tags": {"addr:city": "Saint-Chamond", "addr:housenumber": "15", "addr:postcode": "42400", "addr:street": "Rue de Plaisance", "amenity": "bar", "name": "Le Plaisance"}}, {"type": "node", "id": 6485689224, "lat": 45.4575476, "lon": 4.5042166, "tags": {"addr:city": "Saint-Chamond", "addr:housenumber": "2", "addr:postcode": "42400", "addr:street": "Place Louis Comte", "amenity": "bar", "name": "Chez Nanou"}}, {"type": "node", "id": 8367976987, "lat": 45.4908998, "lon": 4.534529}, {"type": "way", "id": 145845552, "nodes": [1591704736, 1591704498, 8367976987, 1591704448, 1591704337, 1591704318, 1591704527, 1591704563, 1591704661, 1591704736], "tags": {"amenity": "bar", "building": "yes", "source": "cadastre-dgi-fr source : Direction G\u00e9n\u00e9rale des Imp\u00f4ts - Cadastre. Mise \u00e0 jour : 2012"}}]}