{"version": 0.6, "generator": "Overpass API 0.7.62.4 2390de5a", "osm3s": {"timestamp_osm_base": "2024-12-01T13:01:30Z", "copyright": "The data included in this document is from www.openstreetmap.org. The data is made available under ODbL."}, "elements": [{"type": "node", "id": 270301201, "lat": 45.7542712, "lon": 4.8851291, "tags": {"bus": "yes", "highway": "bus_stop", "lit": "yes", "name": "Reconnaissance - Balzac", "network": "TCL", "network:wikidata": "Q8700", "network:wikipedia": "fr:Transports en commun lyonnais", "operator": "Keolis Lyon", "operator:wikidata": "Q61456136", "public_transport": "stop_position", "tactile_paving": "no"}}, {"type": "node", "id": 314742077, "lat": 45.764949, "lon": 4.9092211, "tags": {"bus": "yes", "highway": "bus_stop", "layer": "1", "name": "Laurent Bonnevay - Astroballe", "network": "TCL", "network:wikidata": "Q8700", "operator": "Keolis Lyon", "operator:wikidata": "Q61456136", "public_transport": "platform", "ref": "28", "ref:FR:TCL": "1514", "route_ref": "C17A:A,C17A:R", "shelter": "yes", "source": "SYTRAL 03/2020", "tactile_paving": "no", "wheelchair": "yes"}}, {"type": "node", "id": 314742236, "lat": 45.7648226, "lon": 4.9091014, "tags": {"bus": "yes", "highway": "bus_stop", "layer": "1", "local_ref": "Bus67", "name": "Laurent Bonnevay - Astroballe", "network": "TCL", "network:wikidata": "Q8700", "operator": "Keolis Lyon", "operator:wikidata": "Q61456136", "public_transport": "platform", "ref:FR:TCL": "1512", "route_ref": "67A:A,67A:R", "shelter": "yes", "source": "SYTRAL 12/2016", "wheelchair": "yes"}}, {"type": "node", "id": 1426129690, "lat": 45.767872, "lon": 4.8776585, "tags": {"bench": "yes", "bin": "yes", "bus": "yes", "highway": "bus_stop", "lit": "yes", "name": "Villeurbanne Centre", "network": "TCL", "public_transport": "platform", "ref:FR:TCL": "43062", "route_ref": "27A:A,27A:R", "shelter": "yes", "source": "SYTRAL 12/2016", "tactile_paving": "no", "wheelchair": "yes"}}, {"type": "node", "id": 1697514037, "lat": 45.7579882, "lon": 4.8844782, "tags": {"bus": "yes", "highway": "bus_stop", "name": "Arago", "network": "TCL", "network:wikidata": "Q8700", "network:wikipedia": "fr:Transports en commun lyonnais", "operator": "Keolis Lyon", "operator:wikidata": "Q61456136", "public_transport": "stop_position", "trolleybus": "yes"}}, {"type": "node", "id": 1719279142, "lat": 45.7682751, "lon": 4.886034, "tags": {"bench": "yes", "bin": "yes", "bus": "yes", "highway": "bus_stop", "lit": "yes", "mapillary": "520590739315584", "name": "Rue de France - IUT", "network": "TCL", "network:wikidata": "Q8700", "operator": "Keolis Lyon", "operator:wikidata": "Q61456136", "public_transport": "platform", "ref:FR:TCL": "10376", "route_ref": "69A:A", "shelter": "yes", "source": "SYTRAL 03/2020", "tactile_paving": "no", "wheelchair": "yes"}}, {"type": "node", "id": 1719279148, "lat": 45.7682615, "lon": 4.8866419, "tags": {"bench": "yes", "bin": "yes", "bus": "yes", "highway": "bus_stop", "lit": "no", "mapillary": "494399078651834", "name": "Rue de France - IUT", "network": "TCL", "network:wikidata": "Q8700", "operator": "Keolis Lyon", "operator:wikidata": "Q61456136", "public_transport": "platform", "ref:FR:TCL": "47338", "route_ref": "69A:R", "shelter": "no", "source": "SYTRAL 03/2020", "survey:date": "2017-09-29", "tactile_paving": "no", "wheelchair": "yes"}}, {"type": "node", "id": 1759854245, "lat": 45.771241, "lon": 4.8641968, "tags": {"bench": "no", "bin": "yes", "bus": "yes", "highway": "bus_stop", "lit": "yes", "mapillary": "1450038208661619", "name": "Charpennes - Charles Hernu", "network": "TCL", "network:wikidata": "Q8700", "operator": "Keolis Lyon", "operator:wikidata": "Q61456136", "public_transport": "platform", "ref:FR:TCL": "46644", "route_ref": "C17A:A,C17A:R", "shelter": "no", "source": "SYTRAL 03/2020", "tactile_paving": "no", "wheelchair": "yes"}}, {"type": "node", "id": 1759854262, "lat": 45.7709278, "lon": 4.8637278, "tags": {"bench": "yes", "bin": "yes", "bus": "yes", "highway": "bus_stop", "lit": "yes", "mapillary": "4297693396907626", "name": "Charpennes - Charles Hernu", "network": "TCL", "network:wikidata": "Q8700", "operator": "Keolis Lyon", "operator:wikidata": "Q61456136", "public_transport": "platform", "ref:FR:TCL": "46642", "route_ref": "328A:A,328A:R,37A:R,C17A:A", "shelter": "yes", "source": "SYTRAL 03/2020", "tactile_paving": "no", "wheelchair": "yes"}}, {"type": "node", "id": 1783080342, "lat": 45.7649798, "lon": 4.9087311, "tags": {"bench": "yes", "bin": "yes", "bus": "yes", "check_date:shelter": "2022-10-01", "highway": "bus_stop", "lit": "yes", "local_ref": "C3 vers Vaulx", "name": "Laurent Bonnevay - Astroballe", "network": "TCL", "network:wikidata": "Q8700", "operator": "Keolis Lyon", "operator:wikidata": "Q61456136", "public_transport": "platform", "ref:FR:TCL": "1513", "route_ref": "C3A:A,C3A:R", "shelter": "yes", "source": "SYTRAL 12/2016", "tactile_paving": "no", "trolleybus": "yes", "wheelchair": "yes"}}, {"type": "node", "id": 1783080344, "lat": 45.7651832, "lon": 4.9082537, "tags": {"bench": "yes", "bin": "yes", "bus": "yes", "highway": "bus_stop", "local_ref": "Bus 57", "name": "Laurent Bonnevay - Astroballe", "public_transport": "platform", "ref:FR:TCL": "1510", "route_ref": "57A:A,57A:R", "shelter": "yes", "source": "SYTRAL 03/2020", "tactile_paving": "no", "wheelchair": "yes"}}, {"type": "node", "id": 1783080345, "lat": 45.765152, "lon": 4.908393, "tags": {"bench": "yes", "bin": "yes", "bus": "yes", "highway": "bus_stop", "lit": "yes", "local_ref": "bus 83 et 7", "name": "Laurent Bonnevay - Astroballe", "network": "TCL", "network:wikidata": "Q8700", "operator": "Keolis Lyon", "operator:wikidata": "Q61456136", "public_transport": "platform", "ref:FR:TCL": "1509", "route_ref": "7A:A,7A:R,83A:A", "shelter": "yes", "source": "SYTRAL 03/2020", "tactile_paving": "no", "wheelchair": "yes"}}, {"type": "node", "id": 1783080346, "lat": 45.7649231, "lon": 4.9088681, "tags": {"bench": "yes", "bin": "yes", "bus": "yes", "check_date:shelter": "2023-01-22", "highway": "bus_stop", "lit": "yes", "local_ref": "C3 vers St Paul", "name": "Laurent Bonnevay - Astroballe", "network": "TCL", "network:wikidata": "Q8700", "operator": "Keolis Lyon", "operator:wikidata": "Q61456136", "public_transport": "platform", "ref:FR:TCL": "1508", "route_ref": "C3A:A,C3A:R", "shelter": "yes", "source": "SYTRAL 12/2016", "tactile_paving": "no", "trolleybus": "yes", "wheelchair": "yes"}}, {"type": "node", "id": 1783080347, "lat": 45.7650231, "lon": 4.9086098, "tags": {"bench": "yes", "bin": "yes", "bus": "yes", "highway": "bus_stop", "lit": "yes", "local_ref": "bus 83", "name": "Laurent Bonnevay - Astroballe", "network": "TCL", "network:wikidata": "Q8700", "operator": "Keolis Lyon", "operator:wikidata": "Q61456136", "public_transport": "platform", "ref:FR:TCL": "1507", "route_ref": "7A:A,7A:R", "shelter": "yes", "source": "SYTRAL 03/2020", "tactile_paving": "no", "wheelchair": "yes"}}, {"type": "node", "id": 1783080348, "lat": 45.7651536, "lon": 4.9087358, "tags": {"bench": "yes", "bin": "yes", "bus": "yes", "highway": "bus_stop", "lit": "yes", "local_ref": "bus 7", "name": "Laurent Bonnevay - Astroballe", "network": "TCL", "network:wikidata": "Q8700", "operator": "Keolis Lyon", "operator:wikidata": "Q61456136", "public_transport": "platform", "ref:FR:TCL": "1504", "route_ref": "83A:R", "shelter": "yes", "source": "SYTRAL 03/2020", "tactile_paving": "no", "wheelchair": "yes"}}, {"type": "node", "id": 1783080349, "lat": 45.7648857, "lon": 4.9093427, "tags": {"bus": "yes", "highway": "bus_stop", "local_ref": "C17", "name": "Laurent Bonnevay - Astroballe", "network": "TCL", "network:wikidata": "Q8700", "operator": "Keolis Lyon", "operator:wikidata": "Q61456136", "public_transport": "platform", "ref:FR:TCL": "30180", "route_ref": "C17A:A", "source": "SYTRAL 03/2020", "wheelchair": "yes"}}, {"type": "node", "id": 1783080350, "lat": 45.764989, "lon": 4.9090886, "tags": {"bench": "yes", "bus": "yes", "highway": "bus_stop", "local_ref": "C17 Charpennes", "name": "Laurent Bonnevay - Astroballe", "network": "TCL", "network:wikidata": "Q8700", "operator": "Keolis Lyon", "operator:wikidata": "Q61456136", "public_transport": "platform", "ref:FR:TCL": "1506", "route_ref": "C8A:A,C8A:R", "shelter": "yes", "source": "SYTRAL 03/2020", "tactile_paving": "no", "wheelchair": "yes"}}, {"type": "node", "id": 1783080352, "lat": 45.7650934, "lon": 4.9085005, "tags": {"bench": "yes", "bin": "yes", "bus": "yes", "highway": "bus_stop", "lit": "yes", "local_ref": "C8 vers Vaulx", "name": "Laurent Bonnevay - Astroballe", "network": "TCL", "network:wikidata": "Q8700", "operator": "Keolis Lyon", "operator:wikidata": "Q61456136", "public_transport": "platform", "ref:FR:TCL": "1515", "route_ref": "C8A:A,C8A:R", "shelter": "yes", "source": "SYTRAL 03/2020", "tactile_paving": "no", "wheelchair": "yes"}}, {"type": "node", "id": 2026537909, "lat": 45.7849222, "lon": 4.8974605, "tags": {"bus": "yes", "highway": "bus_stop", "mapillary": "Sv9fH4DxTtjYmtILR55PZg", "name": "Puces du Canal", "network": "TCL", "network:wikidata": "Q8700", "old_name": "Le Roulet", "operator": "Keolis Lyon", "operator:wikidata": "Q61456136", "public_transport": "platform", "ref:FR:TCL": "1581", "route_ref": "37A:R,7A:R", "shelter": "yes", "source": "SYTRAL 12/2016", "survey:date": "2019-10-21", "wheelchair": "yes"}}, {"type": "node", "id": 2026537913, "lat": 45.778706, "lon": 4.8988598, "tags": {"bus": "yes", "highway": "bus_stop", "name": "Stade des Peupliers", "network": "TCL", "public_transport": "platform", "ref:FR:TCL": "2899", "route_ref": "7A:R", "source": "SYTRAL 12/2016"}}, {"type": "node", "id": 2026537926, "lat": 45.7785586, "lon": 4.9034264, "tags": {"bus": "yes", "highway": "bus_stop", "name": "Coll\u00e8ge Simone Lagrange", "network": "TCL", "network:wikidata": "Q8700", "operator": "Keolis Lyon", "operator:wikidata": "Q61456136", "public_transport": "platform", "ref:FR:TCL": "11285", "route_ref": "7A:R", "source": "SYTRAL 12/2016", "wheelchair": "yes"}}, {"type": "node", "id": 2026537933, "lat": 45.7819265, "lon": 4.8976985, "tags": {"bus": "yes", "highway": "bus_stop", "name": "Les Bluets", "network": "TCL", "public_transport": "platform", "ref:FR:TCL": "1627", "route_ref": "7A:R", "source": "SYTRAL 12/2016", "wheelchair": "yes"}}, {"type": "node", "id": 2026537937, "lat": 45.7786078, "lon": 4.9029419, "tags": {"bus": "yes", "highway": "bus_stop", "name": "Coll\u00e8ge Simone Lagrange", "network": "TCL", "network:wikidata": "Q8700", "operator": "Keolis Lyon", "operator:wikidata": "Q61456136", "public_transport": "platform", "ref:FR:TCL": "11284", "route_ref": "7A:A", "source": "SYTRAL 12/2016", "wheelchair": "yes"}}, {"type": "node", "id": 2026537944, "lat": 45.7850969, "lon": 4.8978872, "tags": {"bus": "yes", "highway": "bus_stop", "name": "Puces du Canal", "network": "TCL", "network:wikidata": "Q8700", "old_name": "Le Roulet", "operator": "Keolis Lyon", "operator:wikidata": "Q61456136", "public_transport": "platform", "ref:FR:TCL": "1580", "route_ref": "37A:A,7A:A", "source": "SYTRAL 12/2016", "wheelchair": "yes"}}, {"type": "node", "id": 2033258299, "lat": 45.7855673, "lon": 4.9049412, "tags": {"bus": "yes", "highway": "bus_stop", "name": "Desgrand", "network": "TCL", "network:wikidata": "Q8700", "operator": "Keolis Lyon", "operator:wikidata": "Q61456136", "public_transport": "platform", "ref:FR:TCL": "751", "route_ref": "37A:A,7A:A", "source": "SYTRAL 12/2016", "wheelchair": "yes"}}, {"type": "node", "id": 2049944304, "lat": 45.764196, "lon": 4.9191675, "tags": {"bench": "no", "bin": "yes", "bus": "yes", "highway": "bus_stop", "lit": "no", "mapillary": "1136376343508081", "name": "Carr\u00e9 de Soie", "network": "TCL", "network:wikidata": "Q8700", "operator": "Keolis Lyon", "operator:wikidata": "Q61456136", "public_transport": "platform", "ref:FR:TCL": "47418", "route_ref": "83A:R,C8A:R", "shelter": "yes", "source": "SYTRAL 03/2020", "survey:date": "2017-11-18", "tactile_paving": "no"}}, {"type": "node", "id": 2049944307, "lat": 45.7627362, "lon": 4.9149884, "tags": {"bus": "yes", "highway": "bus_stop", "name": "Decomberousse", "network": "TCL", "network:wikidata": "Q8700", "operator": "Keolis Lyon", "operator:wikidata": "Q61456136", "public_transport": "platform", "ref:FR:TCL": "709", "route_ref": "C15A:R", "shelter": "no", "source": "SYTRAL 12/2016", "wheelchair": "yes"}}, {"type": "node", "id": 2120541992, "lat": 45.7698919, "lon": 4.9070861, "tags": {"bus": "yes", "highway": "bus_stop", "name": "Pont des Planches", "network": "TCL", "public_transport": "platform", "ref:FR:TCL": "33465", "route_ref": "7A:A", "source": "SYTRAL 12/2016"}}, {"type": "node", "id": 2120541996, "lat": 45.7814763, "lon": 4.8979894, "tags": {"highway": "bus_stop", "name": "Les Bluets", "public_transport": "platform", "ref:FR:TCL": "47379", "route_ref": "7A:A", "source": "SYTRAL 03/2020", "wheelchair": "yes"}}, {"type": "node", "id": 2120542000, "lat": 45.7744886, "lon": 4.9024084, "tags": {"bus": "yes", "highway": "bus_stop", "name": "Prairie", "public_transport": "platform", "ref:FR:TCL": "10260", "route_ref": "7A:R", "source": "SYTRAL 03/2020", "wheelchair": "yes"}}, {"type": "node", "id": 2120542001, "lat": 45.7765425, "lon": 4.9029961, "tags": {"bus": "yes", "highway": "bus_stop", "name": "Cit\u00e9 Saint-Jean", "public_transport": "platform", "ref:FR:TCL": "533", "route_ref": "7A:A", "source": "SYTRAL 03/2020", "wheelchair": "yes"}}, {"type": "node", "id": 2120542002, "lat": 45.7761638, "lon": 4.9024845, "tags": {"bus": "yes", "highway": "bus_stop", "name": "Cit\u00e9 Saint-Jean", "public_transport": "platform", "ref:FR:TCL": "534", "route_ref": "7A:R", "source": "SYTRAL 03/2020", "wheelchair": "yes"}}, {"type": "node", "id": 2120542003, "lat": 45.77846, "lon": 4.8993376, "tags": {"bus": "yes", "highway": "bus_stop", "name": "Stade des Peupliers", "network": "TCL", "public_transport": "platform", "ref:FR:TCL": "2898", "route_ref": "7A:A", "source": "SYTRAL 12/2016"}}, {"type": "node", "id": 2120542005, "lat": 45.774769, "lon": 4.9025943, "tags": {"bus": "yes", "highway": "bus_stop", "name": "Prairie", "public_transport": "platform", "ref:FR:TCL": "10259", "route_ref": "7A:A", "source": "SYTRAL 03/2020", "wheelchair": "yes"}}, {"type": "node", "id": 2135292403, "lat": 45.778678, "lon": 4.8625492, "tags": {"bench": "yes", "bin": "yes", "bus": "yes", "check_date:shelter": "2022-02-11", "highway": "bus_stop", "lit": "yes", "name": "Rossellini", "network": "TCL", "network:wikidata": "Q8700", "operator": "Keolis Lyon", "operator:wikidata": "Q61456136", "public_transport": "platform", "ref:FR:TCL": "42559", "route_ref": "70A:A,C2A:A", "shelter": "yes", "source": "SYTRAL 12/2016", "tactile_paving": "yes", "trolleybus": "yes", "wheelchair": "yes"}}, {"type": "node", "id": 2135292414, "lat": 45.7785487, "lon": 4.8623796, "tags": {"bench": "yes", "bin": "yes", "bus": "yes", "check_date:shelter": "2022-02-11", "highway": "bus_stop", "name": "Rossellini", "network": "TCL", "network:wikidata": "Q8700", "operator": "Keolis Lyon", "operator:wikidata": "Q61456136", "public_transport": "platform", "ref:FR:TCL": "42560", "route_ref": "70A:R,C2A:R", "shelter": "yes", "source": "SYTRAL 12/2016", "tactile_paving": "no", "trolleybus": "yes", "wheelchair": "yes"}}, {"type": "node", "id": 2135305791, "lat": 45.7752667, "lon": 4.8615466, "tags": {"bench": "yes", "bin": "yes", "bus": "yes", "check_date:shelter": "2021-02-24", "highway": "bus_stop", "lit": "yes", "name": "Tonkin", "network": "TCL", "network:wikidata": "Q8700", "operator": "Keolis Lyon", "operator:wikidata": "Q61456136", "public_transport": "platform", "ref:FR:TCL": "42558", "route_ref": "70A:R,C2A:R", "shelter": "yes", "source": "SYTRAL 12/2016", "tactile_paving": "yes", "trolleybus": "yes", "wheelchair": "yes"}}, {"type": "node", "id": 2135305792, "lat": 45.7754739, "lon": 4.8619605, "tags": {"bench": "yes", "bin": "yes", "bus": "yes", "check_date:shelter": "2021-02-24", "highway": "bus_stop", "lit": "yes", "name": "Tonkin", "network": "TCL", "network:wikidata": "Q8700", "operator": "Keolis Lyon", "operator:wikidata": "Q61456136", "public_transport": "platform", "ref:FR:TCL": "42557", "route_ref": "70A:A,C2A:A", "shelter": "yes", "source": "SYTRAL 12/2016", "tactile_paving": "no", "trolleybus": "yes", "wheelchair": "yes"}}, {"type": "node", "id": 2195402213, "lat": 45.762313, "lon": 4.9117308, "tags": {"bench": "yes", "bus": "yes", "highway": "bus_stop", "lit": "yes", "mapillary": "W74EuMfU0BNvpwLgonxwSw", "name": "Cimeti\u00e8re de Cusset", "network": "TCL", "network:wikidata": "Q8700", "operator": "Keolis Lyon", "operator:wikidata": "Q61456136", "public_transport": "platform", "ref:FR:TCL": "506", "route_ref": "67A:A,83A:R,C15A:R,C8A:R", "shelter": "yes", "source": "SYTRAL 12/2016", "survey:date": "2017-09-28", "tactile_paving": "no", "wheelchair": "yes"}}, {"type": "node", "id": 2278619514, "lat": 45.7647738, "lon": 4.9092196, "tags": {"bus": "yes", "highway": "bus_stop", "local_ref": "C8 vers Grange Blanche", "name": "Laurent Bonnevay - Astroballe", "network": "TCL", "network:wikidata": "Q8700", "operator": "Keolis Lyon", "operator:wikidata": "Q61456136", "public_transport": "platform", "ref:FR:TCL": "1505", "route_ref": "C15A:A,C15A:R", "shelter": "yes", "source": "SYTRAL 03/2020", "wheelchair": "yes"}}, {"type": "node", "id": 2464984393, "lat": 45.7800069, "lon": 4.8917155, "tags": {"bench": "yes", "bin": "yes", "bus": "yes", "highway": "bus_stop", "lit": "yes", "name": "Place des Buers", "network": "TCL", "network:wikidata": "Q8700", "operator": "Keolis Lyon", "operator:wikidata": "Q61456136", "public_transport": "platform", "ref:FR:TCL": "2379", "route_ref": "C17A:R", "shelter": "yes", "source": "SYTRAL 12/2016", "tactile_paving": "no", "wheelchair": "yes"}}, {"type": "node", "id": 2471095698, "lat": 45.7766957, "lon": 4.8744622, "tags": {"bench": "yes", "bin": "no", "bus": "yes", "highway": "bus_stop", "lit": "yes", "name": "Colin", "network": "TCL", "network:wikidata": "Q8700", "operator": "Keolis Lyon", "operator:wikidata": "Q61456136", "public_transport": "platform", "ref:FR:TCL": "579", "route_ref": "37A:R,69A:A", "shelter": "yes", "source": "SYTRAL 03/2020", "tactile_paving": "no", "wheelchair": "yes"}}, {"type": "node", "id": 2471095699, "lat": 45.7766006, "lon": 4.8749202, "tags": {"bus": "yes", "highway": "bus_stop", "name": "Colin", "network": "TCL", "network:wikidata": "Q8700", "operator": "Keolis Lyon", "operator:wikidata": "Q61456136", "public_transport": "platform", "ref:FR:TCL": "47384", "route_ref": "37A:A,69A:R", "shelter": "no", "source": "SYTRAL 03/2020", "tactile_paving": "no", "wheelchair": "yes"}}, {"type": "node", "id": 2471095700, "lat": 45.7771241, "lon": 4.8741616, "tags": {"bench": "no", "bin": "no", "bus": "yes", "highway": "bus_stop", "lit": "no", "name": "Colin", "network": "TCL", "network:wikidata": "Q8700", "operator": "Keolis Lyon", "operator:wikidata": "Q61456136", "public_transport": "platform", "ref:FR:TCL": "47432", "route_ref": "C17A:R", "shelter": "no", "source": "SYTRAL 03/2020", "tactile_paving": "no", "wheelchair": "yes"}}, {"type": "node", "id": 2471095701, "lat": 45.7769476, "lon": 4.8742475, "tags": {"bench": "no", "bus": "yes", "highway": "bus_stop", "name": "Colin", "network": "TCL", "network:wikidata": "Q8700", "operator": "Keolis Lyon", "operator:wikidata": "Q61456136", "public_transport": "platform", "ref:FR:TCL": "581", "route_ref": "C17A:A", "shelter": "no", "source": "SYTRAL 03/2020", "tactile_paving": "no", "wheelchair": "yes"}}, {"type": "node", "id": 2471187516, "lat": 45.7756896, "lon": 4.8908316, "tags": {"bench": "no", "bin": "yes", "bus": "yes", "highway": "bus_stop", "lit": "no", "name": "Dupeuble", "network": "TCL", "network:wikidata": "Q8700", "operator": "Keolis Lyon", "operator:wikidata": "Q61456136", "public_transport": "platform", "ref:FR:TCL": "10243", "route_ref": "69A:A", "shelter": "no", "source": "SYTRAL 03/2020", "tactile_paving": "no"}}, {"type": "node", "id": 2471187517, "lat": 45.7761151, "lon": 4.8924436, "tags": {"bench": "no", "bin": "yes", "bus": "yes", "highway": "bus_stop", "lit": "yes", "name": "Dupeuble", "network": "TCL", "network:wikidata": "Q8700", "operator": "Keolis Lyon", "operator:wikidata": "Q61456136", "public_transport": "platform", "ref:FR:TCL": "10244", "route_ref": "69A:R", "shelter": "no", "source": "SYTRAL 03/2020", "tactile_paving": "no"}}, {"type": "node", "id": 2623015245, "lat": 45.765635, "lon": 4.9003035, "tags": {"bench": "yes", "bin": "yes", "highway": "bus_stop", "lit": "yes", "name": "Cusset", "network": "TCL", "public_transport": "platform", "shelter": "yes", "tactile_paving": "no", "waste_basket": "yes"}}, {"type": "node", "id": 2623015283, "lat": 45.7659658, "lon": 4.9011368, "tags": {"bench": "yes", "bus": "yes", "covered": "yes", "highway": "bus_stop", "name": "Cusset", "network": "TCL", "network:wikidata": "Q8700", "operator": "Keolis Lyon", "operator:wikidata": "Q61456136", "public_transport": "platform", "ref:FR:TCL": "46648", "route_ref": "C17A:R", "shelter": "yes", "source": "SYTRAL 03/2020", "wheelchair": "yes"}}, {"type": "node", "id": 2821517111, "lat": 45.7691007, "lon": 4.881825, "tags": {"bench": "yes", "bus": "yes", "highway": "bus_stop", "name": "Gratte-Ciel", "network": "TCL", "network:wikidata": "Q8700", "network:wikipedia": "fr:Transports en commun lyonnais", "operator": "Keolis Lyon", "operator:wikidata": "Q61456136", "public_transport": "stop_position", "shelter": "yes"}}, {"type": "node", "id": 2888303057, "lat": 45.7682214, "lon": 4.8887671, "tags": {"bus": "yes", "highway": "bus_stop", "name": "Flachet Alain Gilles", "public_transport": "platform", "ref:FR:TCL": "46255", "route_ref": "69A:R", "shelter": "no", "source": "SYTRAL 03/2020", "tactile_paving": "no", "wheelchair": "yes"}}, {"type": "node", "id": 2888303058, "lat": 45.768058, "lon": 4.8897714, "tags": {"bench": "no", "bin": "yes", "bus": "yes", "highway": "bus_stop", "lit": "no", "name": "Flachet Alain Gilles", "network": "TCL", "network:wikidata": "Q8700", "operator": "Keolis Lyon", "operator:wikidata": "Q61456136", "public_transport": "platform", "ref:FR:TCL": "10166", "route_ref": "69A:A", "shelter": "no", "source": "SYTRAL 03/2020", "tactile_paving": "no"}}, {"type": "node", "id": 3369087276, "lat": 45.7595543, "lon": 4.8772211, "tags": {"bench": "yes", "bin": "no", "bus": "yes", "highway": "bus_stop", "lit": "yes", "name": "Marengo", "network": "TCL", "network:wikidata": "Q8700", "operator": "Keolis Lyon", "operator:wikidata": "Q61456136", "public_transport": "platform", "ref:FR:TCL": "10329", "route_ref": "69A:A", "shelter": "yes", "source": "SYTRAL 03/2020", "tactile_paving": "no", "wheelchair": "no"}}, {"type": "node", "id": 3400176802, "lat": 45.7762046, "lon": 4.8715233, "tags": {"bench": "no", "bin": "no", "bus": "yes", "highway": "bus_stop", "lit": "no", "name": "Descartes", "network": "TCL", "network:wikidata": "Q8700", "operator": "Keolis Lyon", "operator:wikidata": "Q61456136", "public_transport": "platform", "ref:FR:TCL": "750", "route_ref": "37A:R,69A:A,C17A:R", "shelter": "no", "source": "SYTRAL 03/2020", "tactile_paving": "no", "wheelchair": "yes"}}, {"type": "node", "id": 3400176803, "lat": 45.7763015, "lon": 4.8727718, "tags": {"bench": "no", "bin": "yes", "bus": "yes", "highway": "bus_stop", "name": "Descartes", "network": "TCL", "network:wikidata": "Q8700", "operator": "Keolis Lyon", "operator:wikidata": "Q61456136", "public_transport": "platform", "ref:FR:TCL": "42434", "route_ref": "37A:A,69A:R,C17A:A", "shelter": "no", "source": "SYTRAL 03/2020", "tactile_paving": "no", "wheelchair": "yes"}}, {"type": "node", "id": 3400176808, "lat": 45.7743266, "lon": 4.8682426, "tags": {"bench": "yes", "bin": "yes", "bus": "yes", "check_date:shelter": "2022-04-22", "highway": "bus_stop", "lit": "yes", "name": "Place Wilson", "network": "TCL", "network:wikidata": "Q8700", "operator": "Keolis Lyon", "operator:wikidata": "Q61456136", "public_transport": "platform", "ref:FR:TCL": "2404", "route_ref": "37A:R,C17A:R", "shelter": "yes", "source": "SYTRAL 12/2016", "tactile_paving": "no", "wheelchair": "yes"}}, {"type": "node", "id": 3400176809, "lat": 45.7744284, "lon": 4.8686552, "tags": {"bench": "yes", "bin": "yes", "bus": "yes", "check_date:shelter": "2021-11-20", "highway": "bus_stop", "lit": "yes", "name": "Place Wilson", "network": "TCL", "network:wikidata": "Q8700", "operator": "Keolis Lyon", "operator:wikidata": "Q61456136", "public_transport": "platform", "ref:FR:TCL": "2403", "route_ref": "37A:A,C17A:A", "shelter": "yes", "source": "SYTRAL 12/2016", "tactile_paving": "no", "wheelchair": "yes"}}, {"type": "node", "id": 3594169538, "lat": 45.7489866, "lon": 4.9152081, "tags": {"bench": "yes", "bin": "yes", "bus": "yes", "highway": "bus_stop", "lit": "yes", "mapillary": "757448881582553", "name": "La Pag\u00e8re - Les Brosses", "network": "TCL", "network:wikidata": "Q8700", "operator": "Keolis Lyon", "operator:wikidata": "Q61456136", "public_transport": "platform", "ref:FR:TCL": "33011", "route_ref": "25A:R", "shelter": "yes", "source": "SYTRAL 12/2016", "survey:date": "2017-09-28", "tactile_paving": "no", "wheelchair": "yes"}}, {"type": "node", "id": 3602281767, "lat": 45.7570041, "lon": 4.9211356, "tags": {"bench": "no", "bin": "yes", "bus": "yes", "highway": "bus_stop", "lit": "yes", "name": "Musset - Poudrette", "network": "TCL", "network:wikidata": "Q8700", "operator": "Keolis Lyon", "operator:wikidata": "Q61456136", "public_transport": "platform", "ref:FR:TCL": "47411", "route_ref": "C15A:R,C8A:R", "shelter": "yes", "source": "SYTRAL 03/2020", "tactile_paving": "no", "wheelchair": "yes"}}, {"type": "node", "id": 3602281770, "lat": 45.754274, "lon": 4.9134729, "tags": {"bench": "yes", "bus": "yes", "covered": "yes", "highway": "bus_stop", "name": "S\u00e9verine", "network": "TCL", "network:wikidata": "Q8700", "operator": "Keolis Lyon", "operator:wikidata": "Q61456136", "public_transport": "platform", "ref:FR:TCL": "2724", "route_ref": "C17A:R", "shelter": "yes", "source": "SYTRAL 03/2020", "tactile_paving": "no", "wheelchair": "yes"}}, {"type": "node", "id": 3602281771, "lat": 45.7539103, "lon": 4.9128151, "tags": {"bus": "yes", "highway": "bus_stop", "mapillary": "521329829028118", "name": "S\u00e9verine", "network": "TCL", "network:wikidata": "Q8700", "operator": "Keolis Lyon", "operator:wikidata": "Q61456136", "public_transport": "platform", "ref:FR:TCL": "2725", "route_ref": "C17A:A,C8A:R", "shelter": "yes", "source": "SYTRAL 03/2020", "survey:date": "2017-09-28", "wheelchair": "yes"}}, {"type": "node", "id": 3610794108, "lat": 45.7645387, "lon": 4.918266, "tags": {"bench": "yes", "bin": "yes", "bus": "yes", "highway": "bus_stop", "lit": "yes", "name": "Carr\u00e9 de Soie", "network": "TCL", "network:wikidata": "Q8700", "operator": "Keolis Lyon", "operator:wikidata": "Q61456136", "public_transport": "platform", "ref:FR:TCL": "42540", "route_ref": "83A:A,C8A:A", "shelter": "yes", "source": "SYTRAL 03/2020", "tactile_paving": "no", "wheelchair": "yes"}}, {"type": "node", "id": 3610905164, "lat": 45.7512036, "lon": 4.914726, "tags": {"bench": "yes", "bus": "yes", "covered": "yes", "highway": "bus_stop", "name": "Place de la Paix", "network": "TCL", "network:wikidata": "Q8700", "operator": "Keolis Lyon", "operator:wikidata": "Q61456136", "public_transport": "platform", "ref:FR:TCL": "10092", "route_ref": "C17A:R", "shelter": "yes", "source": "SYTRAL 12/2016", "wheelchair": "yes"}}, {"type": "node", "id": 3610913228, "lat": 45.7532352, "lon": 4.9106705, "tags": {"bench": "yes", "bin": "yes", "bus": "yes", "highway": "bus_stop", "lit": "yes", "name": "Kr\u00fcger - Voillot", "network": "TCL", "network:wikidata": "Q8700", "operator": "Keolis Lyon", "operator:wikidata": "Q61456136", "public_transport": "platform", "ref:FR:TCL": "1294", "route_ref": "C17A:A", "shelter": "yes", "source": "SYTRAL 12/2016", "tactile_paving": "no", "wheelchair": "yes"}}, {"type": "node", "id": 3610913229, "lat": 45.7535263, "lon": 4.9096739, "tags": {"bench": "yes", "bin": "yes", "bus": "yes", "highway": "bus_stop", "lit": "yes", "mapillary": "4188308264562452", "name": "Kr\u00fcger - Voillot", "network": "TCL", "network:wikidata": "Q8700", "operator": "Keolis Lyon", "operator:wikidata": "Q61456136", "public_transport": "platform", "ref:FR:TCL": "1293", "route_ref": "C8A:A", "shelter": "yes", "source": "SYTRAL 12/2016", "survey:date": "2017-09-28", "tactile_paving": "no", "wheelchair": "yes"}}, {"type": "node", "id": 3610948760, "lat": 45.7582023, "lon": 4.9094566, "tags": {"bench": "no", "bus": "yes", "covered": "no", "highway": "bus_stop", "name": "Bel Air - Les Brosses", "network": "TCL", "network:wikidata": "Q8700", "operator": "Keolis Lyon", "operator:wikidata": "Q61456136", "public_transport": "platform", "ref:FR:TCL": "32303", "route_ref": "C17A:R", "shelter": "no", "source": "SYTRAL 12/2016", "wheelchair": "yes"}}, {"type": "node", "id": 3612995772, "lat": 45.750888, "lon": 4.9096062, "tags": {"bench": "yes", "bin": "no", "bus": "yes", "highway": "bus_stop", "mapillary": "3987719671264930", "name": "Monge", "network": "TCL", "network:wikidata": "Q8700", "operator": "Keolis Lyon", "operator:wikidata": "Q61456136", "public_transport": "platform", "ref:FR:TCL": "42545", "route_ref": "C8A:R", "shelter": "yes", "source": "SYTRAL 12/2016", "survey:date": "2017-09-28", "tactile_paving": "no", "wheelchair": "yes"}}, {"type": "node", "id": 3612995773, "lat": 45.7516048, "lon": 4.9080961, "tags": {"bus": "yes", "highway": "bus_stop", "name": "Genas - Laurent Bonnevay", "public_transport": "platform", "ref:FR:TCL": "1022", "route_ref": "C8A:A", "shelter": "yes", "source": "SYTRAL 12/2016", "wheelchair": "yes"}}, {"type": "node", "id": 3612995774, "lat": 45.7506624, "lon": 4.9098973, "tags": {"bench": "yes", "bin": "yes", "bus": "yes", "highway": "bus_stop", "mapillary": "915065079330514", "name": "Monge", "network": "TCL", "network:wikidata": "Q8700", "operator": "Keolis Lyon", "operator:wikidata": "Q61456136", "pole": "no", "public_transport": "platform", "ref:FR:TCL": "47224", "route_ref": "25A:R", "shelter": "no", "source": "SYTRAL 03/2020", "survey:date": "2017-09-29", "wheelchair": "yes"}}, {"type": "node", "id": 3612996624, "lat": 45.7557044, "lon": 4.9128656, "tags": {"bench": "yes", "bus": "yes", "covered": "yes", "highway": "bus_stop", "name": "Villeurbanne Bel Air", "network": "TCL", "network:wikidata": "Q8700", "operator": "Keolis Lyon", "operator:wikidata": "Q61456136", "public_transport": "platform", "ref:FR:TCL": "3135", "route_ref": "C17A:R", "shelter": "yes", "source": "SYTRAL 12/2016", "tactile_paving": "no", "wheelchair": "yes"}}, {"type": "node", "id": 3613005450, "lat": 45.7533686, "lon": 4.9202154, "tags": {"bench": "yes", "bin": "yes", "bus": "yes", "highway": "bus_stop", "lit": "yes", "mapillary": "1300740840384218", "name": "Dumas - Poudrette", "network": "TCL", "network:wikidata": "Q8700", "operator": "Keolis Lyon", "operator:wikidata": "Q61456136", "public_transport": "platform", "ref:FR:TCL": "41857", "route_ref": "C15A:R", "shelter": "yes", "source": "SYTRAL 12/2016", "survey:date": "2017-09-28", "tactile_paving": "no", "wheelchair": "yes"}}, {"type": "node", "id": 3626322379, "lat": 45.7597914, "lon": 4.9060273, "tags": {"bench": "yes", "bin": "yes", "bus": "yes", "highway": "bus_stop", "lit": "yes", "name": "Bon Coin - M\u00e9dip\u00f4le", "network": "TCL", "network:wikidata": "Q8700", "operator": "Keolis Lyon", "operator:wikidata": "Q61456136", "public_transport": "platform", "ref:FR:TCL": "47008", "route_ref": "C17A:A", "shelter": "yes", "source": "SYTRAL 03/2020", "tactile_paving": "no", "wheelchair": "yes"}}, {"type": "node", "id": 3760037195, "lat": 45.7581838, "lon": 4.9099287, "tags": {"bench": "yes", "bus": "yes", "covered": "no", "highway": "bus_stop", "name": "Bel Air - Les Brosses", "network": "TCL", "network:wikidata": "Q8700", "operator": "Keolis Lyon", "operator:wikidata": "Q61456136", "public_transport": "platform", "ref:FR:TCL": "32302", "route_ref": "C17A:A", "shelter": "no", "source": "SYTRAL 12/2016", "wheelchair": "yes"}}, {"type": "node", "id": 3831609887, "lat": 45.7587374, "lon": 4.8763417, "tags": {"bus": "yes", "highway": "bus_stop", "name": "Marengo", "network": "TCL", "network:wikidata": "Q8700", "network:wikipedia": "fr:Transports en commun lyonnais", "operator": "Keolis Lyon", "operator:wikidata": "Q61456136", "public_transport": "stop_position", "wheelchair": "yes"}}, {"type": "node", "id": 3831609888, "lat": 45.7592474, "lon": 4.8759934, "tags": {"bus": "yes", "highway": "bus_stop", "name": "Marengo", "network": "TCL", "network:wikidata": "Q8700", "network:wikipedia": "fr:Transports en commun lyonnais", "operator": "Keolis Lyon", "operator:wikidata": "Q61456136", "public_transport": "stop_position", "wheelchair": "yes"}}, {"type": "node", "id": 3833180259, "lat": 45.7605829, "lon": 4.9052118, "tags": {"bus": "yes", "highway": "bus_stop", "name": "Bon Coin - M\u00e9dip\u00f4le", "network": "TCL", "network:wikidata": "Q8700", "network:wikipedia": "fr:Transports en commun lyonnais", "operator": "Keolis Lyon", "operator:wikidata": "Q61456136", "public_transport": "stop_position", "trolleybus": "yes"}}, {"type": "node", "id": 3833180260, "lat": 45.7606792, "lon": 4.9061438, "tags": {"bus": "yes", "highway": "bus_stop", "name": "Bon Coin - M\u00e9dip\u00f4le", "network": "TCL", "network:wikidata": "Q8700", "network:wikipedia": "fr:Transports en commun lyonnais", "operator": "Keolis Lyon", "operator:wikidata": "Q61456136", "public_transport": "stop_position", "trolleybus": "yes"}}, {"type": "node", "id": 3833180261, "lat": 45.7602732, "lon": 4.900483, "tags": {"bus": "yes", "highway": "bus_stop", "name": "Cyprian - L\u00e9on Blum", "network": "TCL", "network:wikidata": "Q8700", "network:wikipedia": "fr:Transports en commun lyonnais", "operator": "Keolis Lyon", "operator:wikidata": "Q61456136", "public_transport": "stop_position", "trolleybus": "yes"}}, {"type": "node", "id": 3833180262, "lat": 45.7603378, "lon": 4.9013702, "tags": {"bus": "yes", "highway": "bus_stop", "name": "Cyprian - L\u00e9on Blum", "network": "TCL", "network:wikidata": "Q8700", "network:wikipedia": "fr:Transports en commun lyonnais", "operator": "Keolis Lyon", "operator:wikidata": "Q61456136", "public_transport": "stop_position", "trolleybus": "yes"}}, {"type": "node", "id": 3833718122, "lat": 45.7568022, "lon": 4.8798472, "tags": {"bus": "yes", "highway": "bus_stop", "name": "Florian", "network": "TCL", "network:wikidata": "Q8700", "network:wikipedia": "fr:Transports en commun lyonnais", "operator": "Keolis Lyon", "operator:wikidata": "Q61456136", "public_transport": "stop_position", "trolleybus": "yes"}}, {"type": "node", "id": 3833718123, "lat": 45.7566945, "lon": 4.8794581, "tags": {"bus": "yes", "highway": "bus_stop", "name": "Florian", "network": "TCL", "network:wikidata": "Q8700", "network:wikipedia": "fr:Transports en commun lyonnais", "operator": "Keolis Lyon", "operator:wikidata": "Q61456136", "public_transport": "stop_position", "trolleybus": "yes"}}, {"type": "node", "id": 3859347337, "lat": 45.7531031, "lon": 4.8976837, "tags": {"bus": "yes", "highway": "bus_stop", "name": "Montchat Kimmerling", "network": "TCL", "network:wikidata": "Q8700", "network:wikipedia": "fr:Transports en commun lyonnais", "operator": "Keolis Lyon", "operator:wikidata": "Q61456136", "public_transport": "stop_position"}}, {"type": "node", "id": 3896117876, "lat": 45.7632525, "lon": 4.8892403, "tags": {"bench": "yes", "bin": "yes", "bus": "yes", "covered": "no", "highway": "bus_stop", "lit": "yes", "name": "La Perrali\u00e8re", "network": "TCL", "network:wikidata": "Q8700", "operator": "Keolis Lyon", "operator:wikidata": "Q61456136", "public_transport": "platform", "ref:FR:TCL": "47506", "route_ref": "C26A:A", "shelter": "yes", "source": "SYTRAL 03/2020", "tactile_paving": "no", "wheelchair": "yes"}}, {"type": "node", "id": 3896117879, "lat": 45.7635749, "lon": 4.8894347, "tags": {"bench": "yes", "bin": "yes", "bus": "yes", "covered": "no", "highway": "bus_stop", "lit": "yes", "name": "La Perrali\u00e8re", "network": "TCL", "network:wikidata": "Q8700", "operator": "Keolis Lyon", "operator:wikidata": "Q61456136", "public_transport": "platform", "ref:FR:TCL": "47505", "route_ref": "C26A:R", "shelter": "yes", "source": "SYTRAL 03/2020", "tactile_paving": "no", "wheelchair": "yes"}}, {"type": "node", "id": 4021153530, "lat": 45.7736114, "lon": 4.8903693, "tags": {"bus": "yes", "highway": "bus_stop", "name": "Pierre-Joseph Proudhon", "network": "TCL", "network:wikidata": "Q8700", "operator": "Keolis Lyon", "operator:wikidata": "Q61456136", "public_transport": "platform", "ref:FR:TCL": "2329", "route_ref": "69A:A", "shelter": "no", "source": "SYTRAL 03/2020", "tactile_paving": "no"}}, {"type": "node", "id": 4021153531, "lat": 45.7712576, "lon": 4.890063, "tags": {"bench": "no", "bin": "no", "bus": "yes", "highway": "bus_stop", "lit": "no", "name": "Charles Perrault", "network": "TCL", "network:wikidata": "Q8700", "operator": "Keolis Lyon", "operator:wikidata": "Q61456136", "public_transport": "platform", "ref:FR:TCL": "311", "route_ref": "69A:A", "shelter": "yes", "source": "SYTRAL 03/2020", "tactile_paving": "no", "wheelchair": "yes"}}, {"type": "node", "id": 4113695548, "lat": 45.7498316, "lon": 4.9136856, "tags": {"bench": "no", "bin": "yes", "bus": "yes", "covered": "no", "highway": "bus_stop", "lit": "yes", "name": "Voillot", "public_transport": "platform", "ref:FR:TCL": "47436", "route_ref": "C17A:A", "shelter": "no", "source": "SYTRAL 03/2020", "tactile_paving": "no", "wheelchair": "yes"}}, {"type": "node", "id": 4117537709, "lat": 45.7515206, "lon": 4.9056719, "tags": {"bench": "yes", "bin": "yes", "bus": "yes", "highway": "bus_stop", "lit": "yes", "name": "Lyc\u00e9e de l'Automobile", "network": "TCL", "network:wikidata": "Q8700", "operator": "Keolis Lyon", "operator:wikidata": "Q61456136", "public_transport": "platform", "ref:FR:TCL": "47225", "route_ref": "25A:R", "shelter": "yes", "source": "SYTRAL 03/2020", "tactile_paving": "no", "wheelchair": "yes"}}, {"type": "node", "id": 4580394147, "lat": 45.764881, "lon": 4.9089861, "tags": {"bench": "yes", "bin": "yes", "bus": "yes", "check_date:bench": "2023-01-22", "covered": "no", "highway": "bus_stop", "lit": "yes", "name": "Laurent Bonnevay - Astroballe", "network": "TCL", "network:wikidata": "Q8700", "operator": "Keolis Lyon", "operator:wikidata": "Q61456136", "public_transport": "platform", "ref": "C11", "ref:FR:TCL": "1511", "route_ref": "C11A:A,C11A:R", "shelter": "yes", "source": "SYTRAL 12/2016", "tactile_paving": "no", "trolleybus": "yes", "wheelchair": "yes"}}, {"type": "node", "id": 4580394185, "lat": 45.777892, "lon": 4.8670571, "tags": {"bench": "no", "bin": "yes", "bus": "yes", "departures_board": "timetable", "highway": "bus_stop", "lit": "yes", "name": "Condorcet", "network": "TCL", "network:wikidata": "Q8700", "operator": "Keolis Lyon", "operator:wikidata": "Q61456136", "public_transport": "platform", "ref:FR:TCL": "31864", "route_ref": "69A:A", "shelter": "yes", "source": "SYTRAL 03/2020", "tactile_paving": "no", "wheelchair": "yes"}}, {"type": "node", "id": 4580394186, "lat": 45.7826363, "lon": 4.8895974, "tags": {"bench": "yes", "bin": "yes", "bus": "yes", "check_date:shelter": "2022-01-12", "highway": "bus_stop", "lit": "yes", "name": "Buers - Salengro", "network": "TCL", "network:wikidata": "Q8700", "operator": "Keolis Lyon", "operator:wikidata": "Q61456136", "public_transport": "platform", "ref:FR:TCL": "290", "route_ref": "37A:R,C17A:R", "shelter": "yes", "source": "SYTRAL 12/2016", "tactile_paving": "no", "wheelchair": "yes"}}, {"type": "node", "id": 4580394187, "lat": 45.7825474, "lon": 4.8897628, "tags": {"bench": "yes", "bin": "yes", "bus": "yes", "highway": "bus_stop", "lit": "yes", "name": "Buers - Salengro", "network": "TCL", "network:wikidata": "Q8700", "operator": "Keolis Lyon", "operator:wikidata": "Q61456136", "public_transport": "platform", "ref:FR:TCL": "289", "route_ref": "37A:A,C17A:A", "shelter": "yes", "source": "SYTRAL 12/2016", "tactile_paving": "no", "wheelchair": "yes"}}, {"type": "node", "id": 4580394188, "lat": 45.770115, "lon": 4.8964606, "tags": {"bench": "no", "bin": "no", "bus": "yes", "highway": "bus_stop", "lit": "yes", "name": "Buers - Pressens\u00e9", "network": "TCL", "network:wikidata": "Q8700", "operator": "Keolis Lyon", "operator:wikidata": "Q61456136", "public_transport": "platform", "ref:FR:TCL": "288", "route_ref": "C17A:R", "shelter": "yes", "source": "SYTRAL 12/2016", "tactile_paving": "no", "wheelchair": "yes"}}, {"type": "node", "id": 4580394289, "lat": 45.776322, "lon": 4.8874474, "tags": {"bus": "yes", "departures_board": "timetable", "highway": "bus_stop", "mapillary": "320153912965259", "name": "Dumas", "network": "TCL", "network:wikidata": "Q8700", "operator": "Keolis Lyon", "operator:wikidata": "Q61456136", "pole": "yes", "public_transport": "platform", "ref": "69", "ref:FR:TCL": "796", "route_ref": "69A:R", "shelter": "no", "source": "SYTRAL 03/2020;YOUSSEF ET MAXIME", "survey:date": "2019-03-31"}}, {"type": "node", "id": 4580394290, "lat": 45.7765169, "lon": 4.8872878, "tags": {"bus": "yes", "highway": "bus_stop", "mapillary": "299508941697861", "name": "Dumas", "network": "TCL", "network:wikidata": "Q8700", "operator": "Keolis Lyon", "operator:wikidata": "Q61456136", "pole": "yes", "public_transport": "platform", "ref:FR:TCL": "47423", "route_ref": "69A:A", "shelter": "no", "source": "SYTRAL 03/2020", "survey:date": "2019-03-31"}}, {"type": "node", "id": 4580394291, "lat": 45.7767158, "lon": 4.8924397, "tags": {"bench": "yes", "bus": "yes", "highway": "bus_stop", "name": "Dupeuble", "network": "TCL", "network:wikidata": "Q8700", "operator": "Keolis Lyon", "operator:wikidata": "Q61456136", "public_transport": "platform", "ref:FR:TCL": "30226", "route_ref": "C17A:A", "shelter": "yes", "source": "SYTRAL 12/2016", "tactile_paving": "no", "wheelchair": "yes"}}, {"type": "node", "id": 4580394292, "lat": 45.777228, "lon": 4.8923672, "tags": {"bench": "yes", "bin": "no", "bus": "yes", "highway": "bus_stop", "name": "Dupeuble", "network": "TCL", "network:wikidata": "Q8700", "operator": "Keolis Lyon", "operator:wikidata": "Q61456136", "public_transport": "platform", "ref:FR:TCL": "30227", "route_ref": "C17A:R", "shelter": "yes", "source": "SYTRAL 12/2016", "tactile_paving": "no", "wheelchair": "yes"}}, {"type": "node", "id": 4580394293, "lat": 45.7741568, "lon": 4.8944225, "tags": {"bench": "yes", "bin": "yes", "bus": "yes", "highway": "bus_stop", "lit": "yes", "mapillary": "894671017767259", "name": "Louise Michel", "network": "TCL", "network:wikidata": "Q8700", "operator": "Keolis Lyon", "operator:wikidata": "Q61456136", "public_transport": "platform", "ref:FR:TCL": "1815", "route_ref": "69A:A,C17A:R", "shelter": "yes", "source": "SYTRAL 03/2020", "survey:date": "2017-02-26", "tactile_paving": "no", "wheelchair": "yes"}}, {"type": "node", "id": 4580394294, "lat": 45.7777936, "lon": 4.8845512, "tags": {"bus": "yes", "highway": "bus_stop", "mapillary": "827614098113012", "name": "Filature", "network": "TCL", "network:wikidata": "Q8700", "operator": "Keolis Lyon", "operator:wikidata": "Q61456136", "pole": "yes", "public_transport": "platform", "ref:FR:TCL": "919", "route_ref": "69A:A", "shelter": "no", "source": "SYTRAL 03/2020", "survey:date": "2019-03-31"}}, {"type": "node", "id": 4580394295, "lat": 45.7729287, "lon": 4.8594207, "tags": {"bench": "yes", "bin": "no", "highway": "bus_stop", "lit": "yes", "name": "Clinique du Parc", "public_transport": "platform", "ref:FR:TCL": "47546", "route_ref": "27A:A,27A:R", "shelter": "no", "source": "SYTRAL 05/2020", "tactile_paving": "no", "wheelchair": "yes"}}, {"type": "node", "id": 4580394296, "lat": 45.7742415, "lon": 4.8935825, "tags": {"bench": "no", "bin": "yes", "bus": "yes", "highway": "bus_stop", "lit": "no", "name": "Louise Michel", "network": "TCL", "network:wikidata": "Q8700", "operator": "Keolis Lyon", "operator:wikidata": "Q61456136", "public_transport": "platform", "ref:FR:TCL": "34417", "route_ref": "69A:A", "shelter": "no", "source": "SYTRAL 03/2020", "tactile_paving": "no"}}, {"type": "node", "id": 4580394297, "lat": 45.7749071, "lon": 4.8649963, "tags": {"bench": "no", "bin": "yes", "bus": "yes", "highway": "bus_stop", "lit": "yes", "name": "Chorel", "network": "TCL", "network:wikidata": "Q8700", "operator": "Keolis Lyon", "operator:wikidata": "Q61456136", "public_transport": "platform", "ref:FR:TCL": "3331", "route_ref": "37A:A,C17A:A", "shelter": "no", "source": "SYTRAL 03/2020", "tactile_paving": "no"}}, {"type": "node", "id": 4580394298, "lat": 45.7739552, "lon": 4.8912223, "tags": {"bus": "yes", "highway": "bus_stop", "name": "Pierre-Joseph Proudhon", "network": "TCL", "network:wikidata": "Q8700", "operator": "Keolis Lyon", "operator:wikidata": "Q61456136", "public_transport": "platform", "ref:FR:TCL": "2330", "route_ref": "69A:R", "shelter": "yes", "source": "SYTRAL 03/2020", "tactile_paving": "no", "wheelchair": "yes"}}, {"type": "node", "id": 4580394299, "lat": 45.7792041, "lon": 4.891776, "tags": {"bench": "yes", "bin": "yes", "bus": "yes", "check_date:shelter": "2022-03-07", "highway": "bus_stop", "lit": "yes", "name": "Place des Buers", "network": "TCL", "network:wikidata": "Q8700", "operator": "Keolis Lyon", "operator:wikidata": "Q61456136", "public_transport": "platform", "ref:FR:TCL": "2378", "route_ref": "C17A:A", "shelter": "yes", "source": "SYTRAL 12/2016", "tactile_paving": "no", "wheelchair": "yes"}}, {"type": "node", "id": 4580394300, "lat": 45.7722343, "lon": 4.8960383, "tags": {"bench": "no", "bin": "yes", "bus": "yes", "highway": "bus_stop", "lit": "yes", "name": "Lan\u00e7on", "network": "TCL", "network:wikidata": "Q8700", "operator": "Keolis Lyon", "operator:wikidata": "Q61456136", "public_transport": "platform", "ref:FR:TCL": "1492", "route_ref": "C17A:R", "shelter": "no", "source": "SYTRAL 03/2020", "tactile_paving": "no", "wheelchair": "yes"}}, {"type": "node", "id": 4580394301, "lat": 45.7776733, "lon": 4.8845158, "tags": {"bus": "yes", "highway": "bus_stop", "mapillary": "2592340791070685", "name": "Filature", "network": "TCL", "network:wikidata": "Q8700", "operator": "Keolis Lyon", "operator:wikidata": "Q61456136", "pole": "yes", "public_transport": "platform", "ref:FR:TCL": "920", "route_ref": "69A:R", "shelter": "no", "source": "SYTRAL 03/2020", "survey:date": "2019-03-31"}}, {"type": "node", "id": 4580394302, "lat": 45.7745204, "lon": 4.8936902, "tags": {"bench": "yes", "bin": "yes", "bus": "yes", "highway": "bus_stop", "lit": "yes", "name": "Louise Michel", "network": "TCL", "network:wikidata": "Q8700", "operator": "Keolis Lyon", "operator:wikidata": "Q61456136", "public_transport": "platform", "ref:FR:TCL": "1817;1814", "route_ref": "69A:R;C17A:A", "shelter": "yes", "source": "SYTRAL 03/2020", "tactile_paving": "no", "wheelchair": "yes"}}, {"type": "node", "id": 4580394303, "lat": 45.7746841, "lon": 4.8649573, "tags": {"bench": "no", "bin": "yes", "bus": "yes", "departures_board": "timetable", "highway": "bus_stop", "lit": "yes", "name": "Chorel", "network": "TCL", "network:wikidata": "Q8700", "operator": "Keolis Lyon", "operator:wikidata": "Q61456136", "public_transport": "platform", "ref:FR:TCL": "493", "route_ref": "37A:R,C17A:R", "shelter": "no", "source": "SYTRAL 03/2020", "tactile_paving": "no"}}, {"type": "node", "id": 4580394304, "lat": 45.7812447, "lon": 4.8850889, "tags": {"bench": "yes", "bin": "yes", "bus": "yes", "highway": "bus_stop", "lit": "yes", "name": "Longchamp", "network": "TCL", "network:wikidata": "Q8700", "operator": "Keolis Lyon", "operator:wikidata": "Q61456136", "public_transport": "platform", "ref:FR:TCL": "1803", "route_ref": "37A:R,C17A:R", "shelter": "yes", "source": "SYTRAL 12/2016", "tactile_paving": "no", "wheelchair": "yes"}}, {"type": "node", "id": 4580394305, "lat": 45.7813949, "lon": 4.8861825, "tags": {"bench": "yes", "bus": "yes", "highway": "bus_stop", "name": "Longchamp", "network": "TCL", "network:wikidata": "Q8700", "operator": "Keolis Lyon", "operator:wikidata": "Q61456136", "public_transport": "platform", "ref:FR:TCL": "1802", "route_ref": "37A:A,C17A:A", "shelter": "yes", "source": "SYTRAL 12/2016", "tactile_paving": "no", "wheelchair": "yes"}}, {"type": "node", "id": 4580394308, "lat": 45.771265, "lon": 4.8899485, "tags": {"bench": "yes", "bin": "yes", "bus": "yes", "highway": "bus_stop", "lit": "yes", "name": "Charles Perrault", "network": "TCL", "network:wikidata": "Q8700", "operator": "Keolis Lyon", "operator:wikidata": "Q61456136", "public_transport": "platform", "ref:FR:TCL": "312", "route_ref": "69A:R", "shelter": "yes", "source": "SYTRAL 03/2020", "tactile_paving": "no", "wheelchair": "yes"}}, {"type": "node", "id": 4580394309, "lat": 45.7676635, "lon": 4.9023633, "tags": {"bus": "yes", "highway": "bus_stop", "name": "Cusset", "network": "TCL", "network:wikidata": "Q8700", "operator": "Keolis Lyon", "operator:wikidata": "Q61456136", "public_transport": "platform", "ref:FR:TCL": "46257", "route_ref": "C17A:A", "shelter": "no", "source": "SYTRAL 03/2020"}}, {"type": "node", "id": 4580394310, "lat": 45.7727267, "lon": 4.8963444, "tags": {"bench": "no", "bin": "no", "bus": "yes", "highway": "bus_stop", "lit": "yes", "name": "Lan\u00e7on", "network": "TCL", "network:wikidata": "Q8700", "operator": "Keolis Lyon", "operator:wikidata": "Q61456136", "public_transport": "platform", "ref:FR:TCL": "46256", "route_ref": "C17A:A", "shelter": "no", "source": "SYTRAL 03/2020", "tactile_paving": "no"}}, {"type": "node", "id": 4580545297, "lat": 45.7645103, "lon": 4.8786577, "tags": {"bench": "no", "bin": "yes", "bus": "yes", "highway": "bus_stop", "lit": "yes", "name": "L\u00e9o Lagrange", "network": "TCL", "public_transport": "platform", "ref:FR:TCL": "43061", "route_ref": "27A:A", "shelter": "yes", "source": "SYTRAL 12/2016", "tactile_paving": "no", "wheelchair": "yes"}}, {"type": "node", "id": 4580545300, "lat": 45.7673874, "lon": 4.8740759, "tags": {"bench": "no", "bin": "no", "bus": "yes", "check_date:shelter": "2023-02-22", "highway": "bus_stop", "lit": "no", "name": "\u00c9cole Nationale de Musique", "network": "TCL", "public_transport": "platform", "ref:FR:TCL": "43658", "route_ref": "27A:R", "shelter": "no", "source": "SYTRAL 12/2016", "tactile_paving": "no", "wheelchair": "yes"}}, {"type": "node", "id": 4580545303, "lat": 45.7531418, "lon": 4.9076641, "tags": {"bench": "yes", "bus": "yes", "check_date:shelter": "2024-09-11", "highway": "bus_stop", "name": "Bonnevay - Bel Air", "network": "TCL", "network:wikidata": "Q8700", "operator": "Keolis Lyon", "operator:wikidata": "Q61456136", "public_transport": "platform", "ref:FR:TCL": "233", "route_ref": "7A:A,7A:R", "shelter": "yes", "source": "SYTRAL 03/2020", "tactile_paving": "no", "wheelchair": "yes"}}, {"type": "node", "id": 4580545304, "lat": 45.7522172, "lon": 4.9019119, "tags": {"bench": "yes", "bin": "yes", "bus": "yes", "highway": "bus_stop", "lit": "yes", "mapillary": "3936219716424775", "name": "Cyprian - Genas", "network": "TCL", "network:wikidata": "Q8700", "operator": "Keolis Lyon", "operator:wikidata": "Q61456136", "pole": "no", "public_transport": "platform", "ref:FR:TCL": "666", "route_ref": "25A:R", "shelter": "no", "source": "SYTRAL 12/2016", "survey:date": "2015-08-25", "tactile_paving": "no"}}, {"type": "node", "id": 4593737739, "lat": 45.7855207, "lon": 4.902134, "tags": {"bench": "yes", "bin": "yes", "bus": "yes", "highway": "bus_stop", "lit": "no", "name": "Marais", "network": "TCL", "network:wikidata": "Q8700", "operator": "Keolis Lyon", "operator:wikidata": "Q61456136", "public_transport": "platform", "ref:FR:TCL": "47380", "route_ref": "37A:R,7A:R", "shelter": "yes", "source": "SYTRAL 03/2020", "tactile_paving": "no", "wheelchair": "yes"}}, {"type": "node", "id": 4593737740, "lat": 45.7854358, "lon": 4.901637, "tags": {"bus": "yes", "highway": "bus_stop", "name": "Marais", "network": "TCL", "network:wikidata": "Q8700", "operator": "Keolis Lyon", "operator:wikidata": "Q61456136", "public_transport": "platform", "ref:FR:TCL": "1893", "route_ref": "37A:A,7A:A", "source": "SYTRAL 03/2020", "wheelchair": "yes"}}, {"type": "node", "id": 4595565665, "lat": 45.7545913, "lon": 4.9168062, "tags": {"bench": "yes", "bus": "yes", "highway": "bus_stop", "name": "Legay", "network": "TCL", "network:wikidata": "Q8700", "operator": "Keolis Lyon", "operator:wikidata": "Q61456136", "public_transport": "platform", "ref:FR:TCL": "10175", "route_ref": "C8A:R", "shelter": "yes", "source": "SYTRAL 03/2020", "wheelchair": "yes"}}, {"type": "node", "id": 4595565666, "lat": 45.7546295, "lon": 4.9178886, "tags": {"bench": "yes", "bus": "yes", "highway": "bus_stop", "mapillary": "442408693648914", "name": "Legay", "network": "TCL", "network:wikidata": "Q8700", "operator": "Keolis Lyon", "operator:wikidata": "Q61456136", "public_transport": "platform", "ref:FR:TCL": "43375", "route_ref": "C8A:A", "shelter": "yes", "source": "SYTRAL 03/2020", "survey:date": "2017-10-06", "wheelchair": "yes"}}, {"type": "node", "id": 4595565673, "lat": 45.7539508, "lon": 4.9137788, "tags": {"bus": "yes", "highway": "bus_stop", "mapillary": "2708193932728917", "name": "S\u00e9verine", "network": "TCL", "network:wikidata": "Q8700", "operator": "Keolis Lyon", "operator:wikidata": "Q61456136", "pole": "yes", "public_transport": "platform", "ref:FR:TCL": "42538", "route_ref": "C8A:A", "shelter": "no", "source": "SYTRAL 03/2020", "survey:date": "2017-10-06", "wheelchair": "yes"}}, {"type": "node", "id": 4595565803, "lat": 45.7555308, "lon": 4.9210884, "tags": {"bench": "no", "bin": "yes", "bus": "yes", "highway": "bus_stop", "lit": "yes", "name": "Nicolas Garnier - Poudrette", "network": "TCL", "network:wikidata": "Q8700", "operator": "Keolis Lyon", "operator:wikidata": "Q61456136", "public_transport": "platform", "ref:FR:TCL": "2109", "route_ref": "C15A:R,C8A:R", "shelter": "yes", "source": "SYTRAL 12/2016", "tactile_paving": "no"}}, {"type": "node", "id": 4595565809, "lat": 45.7503068, "lon": 4.9183216, "tags": {"bench": "yes", "bin": "yes", "bus": "yes", "highway": "bus_stop", "lit": "yes", "mapillary": "143104124403038", "name": "Teillon - Poudrette", "network": "TCL", "network:wikidata": "Q8700", "operator": "Keolis Lyon", "operator:wikidata": "Q61456136", "public_transport": "platform", "ref:FR:TCL": "41855", "route_ref": "C15A:R", "shelter": "yes", "source": "SYTRAL 03/2020", "survey:date": "2017-09-28", "tactile_paving": "no", "wheelchair": "yes"}}, {"type": "node", "id": 4595565815, "lat": 45.7535978, "lon": 4.9098282, "tags": {"bench": "no", "bin": "no", "bus": "yes", "highway": "bus_stop", "lit": "no", "name": "Kr\u00fcger - Voillot", "public_transport": "platform", "ref:FR:TCL": "11268", "route_ref": "C8A:R", "shelter": "no", "source": "SYTRAL 12/2016", "tactile_paving": "no", "wheelchair": "yes"}}, {"type": "node", "id": 4595565816, "lat": 45.762669, "lon": 4.9154148, "tags": {"bench": "no", "bus": "yes", "highway": "bus_stop", "name": "Decomberousse", "network": "TCL", "network:wikidata": "Q8700", "operator": "Keolis Lyon", "operator:wikidata": "Q61456136", "public_transport": "platform", "ref:FR:TCL": "710", "route_ref": "C15A:A", "shelter": "no", "source": "SYTRAL 12/2016", "wheelchair": "yes"}}, {"type": "node", "id": 4595565817, "lat": 45.755281, "lon": 4.9128752, "tags": {"bus": "yes", "highway": "bus_stop", "name": "Villeurbanne Bel Air", "network": "TCL", "network:wikidata": "Q8700", "operator": "Keolis Lyon", "operator:wikidata": "Q61456136", "public_transport": "platform", "ref:FR:TCL": "3134", "route_ref": "C17A:A", "shelter": "yes", "source": "SYTRAL 12/2016", "tactile_paving": "no", "wheelchair": "yes"}}, {"type": "node", "id": 5115388667, "lat": 45.761148, "lon": 4.8764142, "tags": {"bench": "no", "bin": "yes", "bus": "yes", "highway": "bus_stop", "lit": "no", "name": "Aynard - La Fontaine", "network": "TCL", "network:wikidata": "Q8700", "operator": "Keolis Lyon", "operator:wikidata": "Q61456136", "public_transport": "platform", "ref:FR:TCL": "10378", "route_ref": "69A:R", "shelter": "no", "source": "SYTRAL 03/2020", "tactile_paving": "no", "wheelchair": "yes"}}, {"type": "node", "id": 5325094832, "lat": 45.761609, "lon": 4.9192595, "tags": {"bench": "yes", "bin": "yes", "bus": "yes", "highway": "bus_stop", "lit": "yes", "mapillary": "1068555983633010", "name": "Vaulx-en-Velin - La Soie", "network": "TCL", "network:wikidata": "Q8700", "operator": "Keolis Lyon", "operator:wikidata": "Q61456136", "public_transport": "platform", "ref:FR:TCL": "46960", "route_ref": "C15A:A", "shelter": "yes", "source": "SYTRAL 03/2020", "survey:date": "2017-09-28", "tactile_paving": "no", "wheelchair": "yes"}}, {"type": "node", "id": 5948382996, "lat": 45.7723623, "lon": 4.865577, "tags": {"bench": "yes", "bin": "yes", "bus": "yes", "highway": "bus_stop", "lit": "yes", "name": "Andr\u00e9 Philip", "network": "TCL", "network:wikidata": "Q8700", "operator": "Keolis Lyon", "operator:wikidata": "Q61456136", "public_transport": "platform", "ref:FR:TCL": "46640", "route_ref": "37A:A,C17A:A", "shelter": "yes", "source": "SYTRAL 09/2018", "tactile_paving": "no", "wheelchair": "yes"}}, {"type": "node", "id": 6445374944, "lat": 45.7599832, "lon": 4.8963084, "tags": {"bench": "yes", "bin": "yes", "bus": "yes", "highway": "bus_stop", "lit": "yes", "name": "Bernaix", "network": "TCL", "network:wikidata": "Q8700", "operator": "Keolis Lyon", "operator:wikidata": "Q61456136", "public_transport": "platform", "ref:FR:TCL": "47121", "route_ref": "C11A:R,C3A:R", "shelter": "yes", "source": "SYTRAL 05/2020", "tactile_paving": "no", "wheelchair": "yes"}}, {"type": "node", "id": 6445374945, "lat": 45.7599158, "lon": 4.896587, "tags": {"bench": "yes", "bin": "yes", "bus": "yes", "highway": "bus_stop", "lit": "yes", "name": "Bernaix", "network": "TCL", "network:wikidata": "Q8700", "operator": "Keolis Lyon", "operator:wikidata": "Q61456136", "public_transport": "platform", "ref:FR:TCL": "47120", "route_ref": "448A:A,C11A:A,C3A:A", "shelter": "yes", "source": "SYTRAL 05/2020", "tactile_paving": "no", "wheelchair": "yes"}}, {"type": "node", "id": 7019562354, "lat": 45.7596756, "lon": 4.8894729, "tags": {"bench": "yes", "bin": "yes", "bus": "yes", "departures_board": "realtime", "highway": "bus_stop", "lit": "yes", "mapillary": "1335951750121452", "name": "Grandcl\u00e9ment", "network": "TCL", "network:wikidata": "Q8700", "network:wikipedia": "fr:Transports en commun lyonnais", "operator": "Keolis Lyon", "operator:wikidata": "Q61456136", "pole": "yes", "public_transport": "platform", "route_ref": "C26A:A,C3A:A", "shelter": "yes", "source": "SYTRAL 03/2020", "tactile_paving": "no", "trolleybus": "yes"}}, {"type": "node", "id": 7385893098, "lat": 45.780117, "lon": 4.875413, "tags": {"bench": "no", "bin": "yes", "bus": "yes", "highway": "bus_stop", "lit": "no", "name": "CNRS", "network": "TCL", "network:wikidata": "Q8700", "operator": "Keolis Lyon", "operator:wikidata": "Q61456136", "public_transport": "platform", "ref:FR:TCL": "47433", "route_ref": "37A:R,C17A:R,C26A:R", "shelter": "no", "source": "SYTRAL 03/2020", "tactile_paving": "no", "wheelchair": "yes"}}, {"type": "node", "id": 7385893099, "lat": 45.7800026, "lon": 4.8754629, "tags": {"bench": "no", "bin": "yes", "bus": "yes", "highway": "bus_stop", "lit": "no", "name": "CNRS", "network": "TCL", "network:wikidata": "Q8700", "operator": "Keolis Lyon", "operator:wikidata": "Q61456136", "public_transport": "platform", "ref:FR:TCL": "47437", "route_ref": "37A:A,C17A:A,C26A:A", "shelter": "no", "source": "SYTRAL 03/2020", "tactile_paving": "no"}}, {"type": "node", "id": 7417335922, "lat": 45.7763335, "lon": 4.8681893, "tags": {"bench": "no", "bin": "no", "bus": "yes", "highway": "bus_stop", "lit": "yes", "name": "Galline", "network": "TCL", "network:wikidata": "Q8700", "operator": "Keolis Lyon", "operator:wikidata": "Q61456136", "public_transport": "platform", "ref:FR:TCL": "47422", "route_ref": "69A:A", "shelter": "no", "source": "SYTRAL 03/2020", "tactile_paving": "no"}}, {"type": "node", "id": 7417335923, "lat": 45.7762563, "lon": 4.8681775, "tags": {"bench": "no", "bin": "no", "bus": "yes", "highway": "bus_stop", "lit": "yes", "name": "Galline", "network": "TCL", "network:wikidata": "Q8700", "operator": "Keolis Lyon", "operator:wikidata": "Q61456136", "public_transport": "platform", "ref:FR:TCL": "42029", "route_ref": "69A:R", "shelter": "no", "source": "SYTRAL 03/2020", "tactile_paving": "no"}}, {"type": "node", "id": 8838693660, "lat": 45.7700195, "lon": 4.862589, "tags": {"bench": "no", "bin": "yes", "bus": "yes", "departures_board": "timetable", "highway": "bus_stop", "lit": "yes", "name": "Charpennes - Charles Hernu", "network": "TCL", "network:wikidata": "Q8700", "operator": "Keolis Lyon", "operator:wikidata": "Q61456136", "public_transport": "platform", "shelter": "no", "tactile_paving": "no"}}, {"type": "node", "id": 8856631417, "lat": 45.7823709, "lon": 4.8775746, "tags": {"bench": "yes", "bin": "yes", "bus": "yes", "departures_board": "realtime", "highway": "bus_stop", "lit": "yes", "name": "INSA - Einstein", "network": "TCL", "network:wikidata": "Q8700", "operator": "Keolis Lyon", "operator:wikidata": "Q61456136", "public_transport": "platform", "shelter": "yes", "tactile_paving": "yes"}}, {"type": "node", "id": 8856631418, "lat": 45.7822826, "lon": 4.8778683, "tags": {"bench": "yes", "bin": "yes", "bus": "yes", "check_date:shelter": "2023-10-31", "departures_board": "realtime", "highway": "bus_stop", "lit": "yes", "name": "INSA - Einstein", "network": "TCL", "network:wikidata": "Q8700", "operator": "Keolis Lyon", "operator:wikidata": "Q61456136", "public_transport": "platform", "shelter": "yes", "tactile_paving": "no"}}, {"type": "node", "id": 8985114563, "lat": 45.7638356, "lon": 4.8727838, "tags": {"bench": "yes", "bin": "yes", "bus": "yes", "departures_board": "realtime", "highway": "bus_stop", "lit": "yes", "name": "Instit. Art Contemporain", "network": "TCL", "network:wikidata": "Q8700", "network:wikipedia": "fr:Transports en commun lyonnais", "operator": "Keolis Lyon", "operator:wikidata": "Q61456136", "public_transport": "platform", "ref:FR:TCL": "2982", "route_ref": "C3A:R", "shelter": "yes", "source": "SYTRAL 03/2020", "tactile_paving": "no", "trolleybus": "yes", "wheelchair": "yes"}}, {"type": "node", "id": 8985114564, "lat": 45.7637248, "lon": 4.8729481, "tags": {"bench": "yes", "bin": "yes", "bus": "yes", "departures_board": "realtime", "highway": "bus_stop", "lit": "yes", "name": "Instit. Art Contemporain", "network": "TCL", "network:wikidata": "Q8700", "network:wikipedia": "fr:Transports en commun lyonnais", "operator": "Keolis Lyon", "operator:wikidata": "Q61456136", "public_transport": "platform", "ref:FR:TCL": "2982", "route_ref": "C3A:A,27A:A", "shelter": "yes", "source": "SYTRAL 03/2020", "tactile_paving": "no", "trolleybus": "yes", "wheelchair": "yes"}}, {"type": "node", "id": 8985114565, "lat": 45.7620859, "lon": 4.8803137, "tags": {"bench": "yes", "bin": "yes", "bus": "yes", "departures_board": "realtime", "highway": "bus_stop", "lit": "yes", "name": "Verlaine", "network": "TCL", "network:wikidata": "Q8700", "network:wikipedia": "fr:Transports en commun lyonnais", "operator": "Keolis Lyon", "operator:wikidata": "Q61456136", "public_transport": "platform", "ref:FR:TCL": "2982", "route_ref": "C3A:A,69A:A", "shelter": "yes", "source": "SYTRAL 03/2020", "tactile_paving": "no", "trolleybus": "yes", "wheelchair": "yes"}}, {"type": "node", "id": 8985114566, "lat": 45.7622127, "lon": 4.8801605, "tags": {"bench": "yes", "bin": "yes", "bus": "yes", "departures_board": "realtime", "highway": "bus_stop", "lit": "yes", "name": "Verlaine", "network": "TCL", "network:wikidata": "Q8700", "network:wikipedia": "fr:Transports en commun lyonnais", "operator": "Keolis Lyon", "operator:wikidata": "Q61456136", "public_transport": "platform", "ref:FR:TCL": "2982", "route_ref": "C3A:R,69A:R", "shelter": "yes", "source": "SYTRAL 03/2020", "tactile_paving": "no", "trolleybus": "yes", "wheelchair": "yes"}}, {"type": "node", "id": 8985114567, "lat": 45.7611394, "lon": 4.8838249, "tags": {"bench": "yes", "bin": "yes", "bus": "yes", "departures_board": "realtime", "highway": "bus_stop", "lit": "yes", "name": "Blanqui - Le Rize", "network": "TCL", "network:wikidata": "Q8700", "network:wikipedia": "fr:Transports en commun lyonnais", "operator": "Keolis Lyon", "operator:wikidata": "Q61456136", "public_transport": "platform", "ref:FR:TCL": "2982", "route_ref": "C3A:A", "shelter": "yes", "source": "SYTRAL 03/2020", "tactile_paving": "no", "trolleybus": "yes", "wheelchair": "yes"}}, {"type": "node", "id": 8985114568, "lat": 45.7611211, "lon": 4.88429, "tags": {"bench": "no", "bin": "yes", "bus": "yes", "departures_board": "realtime", "highway": "bus_stop", "lit": "yes", "name": "Blanqui - Le Rize", "network": "TCL", "network:wikidata": "Q8700", "network:wikipedia": "fr:Transports en commun lyonnais", "operator": "Keolis Lyon", "operator:wikidata": "Q61456136", "public_transport": "platform", "ref:FR:TCL": "2982", "route_ref": "C3A:R", "shelter": "no", "source": "SYTRAL 03/2020", "tactile_paving": "no", "trolleybus": "yes", "wheelchair": "yes"}}, {"type": "node", "id": 8985114571, "lat": 45.7598228, "lon": 4.8893272, "tags": {"bench": "yes", "bin": "yes", "bus": "yes", "departures_board": "realtime", "highway": "bus_stop", "lit": "yes", "mapillary": "1335951750121452", "name": "Grandcl\u00e9ment", "network": "TCL", "network:wikidata": "Q8700", "network:wikipedia": "fr:Transports en commun lyonnais", "operator": "Keolis Lyon", "operator:wikidata": "Q61456136", "pole": "yes", "public_transport": "platform", "route_ref": "C26A:R,C3A:R", "shelter": "yes", "source": "SYTRAL 03/2020", "tactile_paving": "no", "trolleybus": "yes"}}, {"type": "node", "id": 9779783455, "lat": 45.7754303, "lon": 4.8801731, "tags": {"bench": "no", "bin": "no", "bus": "yes", "highway": "bus_stop", "lit": "yes", "name": "Perroncel", "network": "TCL", "network:wikidata": "Q8700", "operator": "Keolis Lyon", "operator:wikidata": "Q61456136", "public_transport": "platform", "shelter": "no", "tactile_paving": "no"}}, {"type": "node", "id": 9779783456, "lat": 45.7730234, "lon": 4.8807819, "tags": {"bench": "no", "bin": "no", "bus": "yes", "highway": "bus_stop", "lit": "yes", "name": "Pressens\u00e9 - Vaillant", "network": "TCL", "network:wikidata": "Q8700", "operator": "Keolis Lyon", "operator:wikidata": "Q61456136", "public_transport": "platform", "shelter": "no"}}, {"type": "node", "id": 9779783457, "lat": 45.7717596, "lon": 4.8852267, "tags": {"bus": "yes", "highway": "bus_stop", "name": "Bienvenus - Pressens\u00e9", "network": "TCL", "network:wikidata": "Q8700", "operator": "Keolis Lyon", "operator:wikidata": "Q61456136", "public_transport": "platform"}}, {"type": "node", "id": 9779783458, "lat": 45.776808, "lon": 4.8841721, "tags": {"bus": "yes", "highway": "bus_stop", "name": "Perroncel", "network": "TCL", "network:wikidata": "Q8700", "operator": "Keolis Lyon", "operator:wikidata": "Q61456136", "public_transport": "platform", "shelter": "yes"}}, {"type": "node", "id": 9779783459, "lat": 45.7647404, "lon": 4.8868389, "tags": {"bench": "yes", "bin": "yes", "bus": "yes", "highway": "bus_stop", "lit": "yes", "name": "Rue de France - 4 Ao\u00fbt", "network": "TCL", "network:wikidata": "Q8700", "operator": "Keolis Lyon", "operator:wikidata": "Q61456136", "public_transport": "platform", "shelter": "yes", "tactile_paving": "no"}}, {"type": "node", "id": 9779783460, "lat": 45.7646556, "lon": 4.8870137, "tags": {"bench": "yes", "bin": "yes", "bus": "yes", "highway": "bus_stop", "lit": "yes", "name": "Rue de France - 4 Ao\u00fbt", "network": "TCL", "network:wikidata": "Q8700", "operator": "Keolis Lyon", "operator:wikidata": "Q61456136", "public_transport": "platform", "shelter": "yes", "tactile_paving": "no"}}, {"type": "node", "id": 9779809616, "lat": 45.7664687, "lon": 4.8683924, "tags": {"bench": "yes", "bin": "yes", "bus": "yes", "highway": "bus_stop", "lit": "yes", "name": "Viabert - Anatole France", "public_transport": "platform", "shelter": "yes", "tactile_paving": "no"}}, {"type": "node", "id": 9779820917, "lat": 45.7665793, "lon": 4.8679927, "tags": {"bench": "yes", "bin": "yes", "bus": "yes", "highway": "bus_stop", "lit": "yes", "name": "Viabert - Anatole France", "public_transport": "platform", "shelter": "yes", "tactile_paving": "no"}}, {"type": "node", "id": 9779820918, "lat": 45.7705524, "lon": 4.8681569, "tags": {"bench": "yes", "bin": "yes", "bus": "yes", "highway": "bus_stop", "lit": "yes", "name": "Zola", "public_transport": "platform", "shelter": "yes", "tactile_paving": "no"}}, {"type": "node", "id": 9779820919, "lat": 45.7795481, "lon": 4.860896, "tags": {"bench": "yes", "bin": "yes", "bus": "yes", "highway": "bus_stop", "lit": "yes", "name": "Parc T\u00eate d'Or - Stalingrad", "network": "TCL", "network:wikidata": "Q8700", "operator": "Keolis Lyon", "operator:wikidata": "Q61456136", "public_transport": "platform", "shelter": "yes", "tactile_paving": "yes", "trolleybus": "yes"}}, {"type": "node", "id": 9779820920, "lat": 45.7794346, "lon": 4.8601599, "tags": {"bench": "yes", "bin": "yes", "bus": "yes", "highway": "bus_stop", "lit": "yes", "name": "Parc T\u00eate d'Or - Stalingrad", "network": "TCL", "network:wikidata": "Q8700", "operator": "Keolis Lyon", "operator:wikidata": "Q61456136", "public_transport": "platform", "shelter": "yes", "tactile_paving": "no", "trolleybus": "yes"}}, {"type": "node", "id": 9779820921, "lat": 45.778988, "lon": 4.8648842, "tags": {"bench": "yes", "bin": "yes", "bus": "yes", "highway": "bus_stop", "lit": "yes", "name": "Tonkin", "network": "TCL", "network:wikidata": "Q8700", "operator": "Keolis Lyon", "operator:wikidata": "Q61456136", "public_transport": "platform", "shelter": "yes", "tactile_paving": "no"}}, {"type": "node", "id": 9779820922, "lat": 45.7790517, "lon": 4.8662239, "tags": {"bench": "yes", "bin": "yes", "bus": "yes", "highway": "bus_stop", "lit": "yes", "name": "Condorcet", "network": "TCL", "network:wikidata": "Q8700", "operator": "Keolis Lyon", "operator:wikidata": "Q61456136", "public_transport": "platform", "shelter": "yes", "tactile_paving": "no"}}, {"type": "node", "id": 9779820923, "lat": 45.7783758, "lon": 4.8650992, "tags": {"bench": "no", "bin": "no", "bus": "yes", "highway": "bus_stop", "lit": "no", "name": "Tonkin", "network": "TCL", "network:wikidata": "Q8700", "operator": "Keolis Lyon", "operator:wikidata": "Q61456136", "public_transport": "platform", "shelter": "no", "tactile_paving": "no"}}, {"type": "node", "id": 9779820924, "lat": 45.7785174, "lon": 4.8652077, "tags": {"bench": "no", "bin": "no", "bus": "yes", "highway": "bus_stop", "lit": "no", "name": "Tonkin", "network": "TCL", "network:wikidata": "Q8700", "operator": "Keolis Lyon", "operator:wikidata": "Q61456136", "public_transport": "platform", "shelter": "no", "tactile_paving": "no"}}, {"type": "node", "id": 9779820925, "lat": 45.7768455, "lon": 4.8649109, "tags": {"bench": "yes", "bin": "yes", "bus": "yes", "highway": "bus_stop", "lit": "yes", "name": "Coll\u00e8ge Bertrand-Tavernier", "network": "TCL", "network:wikidata": "Q8700", "operator": "Keolis Lyon", "operator:wikidata": "Q61456136", "public_transport": "platform", "shelter": "yes", "tactile_paving": "no"}}, {"type": "node", "id": 9779820926, "lat": 45.7767605, "lon": 4.8650174, "tags": {"bench": "yes", "bin": "yes", "bus": "yes", "highway": "bus_stop", "lit": "yes", "name": "Coll\u00e8ge Bertrand-Tavernier", "network": "TCL", "network:wikidata": "Q8700", "operator": "Keolis Lyon", "operator:wikidata": "Q61456136", "public_transport": "platform", "shelter": "yes", "tactile_paving": "no"}}, {"type": "node", "id": 9779820927, "lat": 45.7787883, "lon": 4.8674234, "tags": {"bench": "yes", "bin": "yes", "bus": "yes", "highway": "bus_stop", "lit": "yes", "name": "Condorcet", "network": "TCL", "network:wikidata": "Q8700", "operator": "Keolis Lyon", "operator:wikidata": "Q61456136", "public_transport": "platform", "shelter": "yes", "tactile_paving": "no"}}, {"type": "node", "id": 9779820928, "lat": 45.7790655, "lon": 4.8720105, "tags": {"bench": "yes", "bin": "no", "bus": "yes", "highway": "bus_stop", "lit": "no", "name": "La Doua", "network": "TCL", "network:wikidata": "Q8700", "operator": "Keolis Lyon", "operator:wikidata": "Q61456136", "public_transport": "platform", "shelter": "yes", "tactile_paving": "no"}}, {"type": "node", "id": 9779820929, "lat": 45.7789101, "lon": 4.8719122, "tags": {"bench": "no", "bin": "no", "bus": "yes", "highway": "bus_stop", "lit": "no", "name": "La Doua", "network": "TCL", "network:wikidata": "Q8700", "operator": "Keolis Lyon", "operator:wikidata": "Q61456136", "public_transport": "platform", "shelter": "no", "tactile_paving": "no"}}, {"type": "node", "id": 9779820930, "lat": 45.7785352, "lon": 4.8793619, "tags": {"bench": "yes", "bin": "no", "bus": "yes", "highway": "bus_stop", "name": "Antonins", "network": "TCL", "network:wikidata": "Q8700", "operator": "Keolis Lyon", "operator:wikidata": "Q61456136", "public_transport": "platform", "shelter": "yes"}}, {"type": "node", "id": 9779820931, "lat": 45.7781532, "lon": 4.8789386, "tags": {"bench": "yes", "bin": "yes", "bus": "yes", "highway": "bus_stop", "name": "Antonins", "network": "TCL", "network:wikidata": "Q8700", "operator": "Keolis Lyon", "operator:wikidata": "Q61456136", "public_transport": "platform", "shelter": "yes"}}, {"type": "node", "id": 9779820932, "lat": 45.7781209, "lon": 4.8790977, "tags": {"bus": "yes", "highway": "bus_stop", "name": "Antonins", "network": "TCL", "network:wikidata": "Q8700", "operator": "Keolis Lyon", "operator:wikidata": "Q61456136", "public_transport": "platform"}}, {"type": "node", "id": 9779820933, "lat": 45.7799462, "lon": 4.8822448, "tags": {"bench": "yes", "bin": "yes", "bus": "yes", "highway": "bus_stop", "lit": "yes", "name": "Place Croix-Luizet", "network": "TCL", "network:wikidata": "Q8700", "operator": "Keolis Lyon", "operator:wikidata": "Q61456136", "public_transport": "platform", "shelter": "yes"}}, {"type": "node", "id": 9779820934, "lat": 45.7801063, "lon": 4.8828378, "tags": {"bench": "yes", "bin": "yes", "bus": "yes", "highway": "bus_stop", "name": "Place Croix-Luizet", "network": "TCL", "network:wikidata": "Q8700", "operator": "Keolis Lyon", "operator:wikidata": "Q61456136", "public_transport": "platform", "shelter": "yes"}}, {"type": "node", "id": 9779820935, "lat": 45.7809546, "lon": 4.8825257, "tags": {"bench": "yes", "bin": "yes", "bus": "yes", "highway": "bus_stop", "lit": "no", "name": "Place Croix-Luizet", "network": "TCL", "network:wikidata": "Q8700", "operator": "Keolis Lyon", "operator:wikidata": "Q61456136", "public_transport": "platform", "shelter": "yes", "tactile_paving": "no"}}, {"type": "node", "id": 9790954665, "lat": 45.7767557, "lon": 4.8798153, "tags": {"bus": "yes", "highway": "bus_stop", "public_transport": "platform"}}, {"type": "node", "id": 9873273796, "lat": 45.754325, "lon": 4.8851274, "tags": {"bench": "yes", "bin": "yes", "bus": "yes", "highway": "bus_stop", "lit": "yes", "name": "Reconnaissance - Balzac", "passenger_information_display": "yes", "public_transport": "platform", "shelter": "no", "tactile_paving": "no"}}, {"type": "node", "id": 10601725283, "lat": 45.7683364, "lon": 4.8842645, "tags": {"bench": "no", "bin": "yes", "bus": "yes", "highway": "bus_stop", "lit": "yes", "name": "Gratte-Ciel - Rollet", "network": "TCL", "network:wikidata": "Q8700", "operator": "Keolis Lyon", "operator:wikidata": "Q61456136", "public_transport": "platform", "shelter": "no", "tactile_paving": "no"}}, {"type": "node", "id": 11377451032, "lat": 45.763034, "lon": 4.8782693, "tags": {"bench": "no", "bin": "no", "bus": "yes", "highway": "bus_stop", "name": "Verlaine - Racine", "network": "TCL", "network:wikidata": "Q8700", "operator": "Keolis Lyon", "operator:wikidata": "Q61456136", "public_transport": "platform", "shelter": "no", "tactile_paving": "no"}}, {"type": "node", "id": 11377451034, "lat": 45.7629472, "lon": 4.8781686, "tags": {"bench": "no", "bin": "no", "bus": "yes", "highway": "bus_stop", "name": "Verlaine - Racine", "network": "TCL", "network:wikidata": "Q8700", "operator": "Keolis Lyon", "operator:wikidata": "Q61456136", "public_transport": "platform", "shelter": "no", "tactile_paving": "no"}}, {"type": "node", "id": 11377451035, "lat": 45.766837, "lon": 4.8814633, "tags": {"bench": "no", "bus": "yes", "highway": "bus_stop", "name": "Mairie de Villeurbanne", "network": "TCL", "network:wikidata": "Q8700", "operator": "Keolis Lyon", "operator:wikidata": "Q61456136", "public_transport": "platform", "shelter": "no"}}, {"type": "node", "id": 11377451037, "lat": 45.7658565, "lon": 4.8781336, "tags": {"bench": "no", "bin": "no", "bus": "yes", "highway": "bus_stop", "name": "Mairie de Villeurbanne", "network": "TCL", "network:wikidata": "Q8700", "operator": "Keolis Lyon", "operator:wikidata": "Q61456136", "public_transport": "platform", "shelter": "no", "tactile_paving": "no"}}, {"type": "node", "id": 11377480057, "lat": 45.754539, "lon": 4.8857093, "tags": {"bus": "yes", "highway": "bus_stop", "name": "Reconnaissance - Balzac", "network": "TCL", "network:wikidata": "Q8700", "operator": "Keolis Lyon", "operator:wikidata": "Q61456136", "public_transport": "platform", "shelter": "no"}}, {"type": "node", "id": 11377480060, "lat": 45.7600411, "lon": 4.8888904, "tags": {"bus": "yes", "highway": "bus_stop", "name": "Grandcl\u00e9ment", "network": "TCL", "network:wikidata": "Q8700", "operator": "Keolis Lyon", "operator:wikidata": "Q61456136", "public_transport": "platform", "shelter": "no"}}, {"type": "node", "id": 11377480063, "lat": 45.7603517, "lon": 4.8890728, "tags": {"bus": "yes", "highway": "bus_stop", "name": "Grandcl\u00e9ment", "network": "TCL", "network:wikidata": "Q8700", "operator": "Keolis Lyon", "operator:wikidata": "Q61456136", "public_transport": "platform", "shelter": "no"}}, {"type": "node", "id": 11377488412, "lat": 45.7650688, "lon": 4.8812262, "tags": {"bus": "yes", "highway": "bus_stop", "name": "Verlaine - 4 Ao\u00fbt", "network": "TCL", "network:wikidata": "Q8700", "operator": "Keolis Lyon", "operator:wikidata": "Q61456136", "public_transport": "platform"}}, {"type": "node", "id": 11377507356, "lat": 45.7683777, "lon": 4.8816478, "tags": {"bus": "yes", "highway": "bus_stop", "name": "Gratte-Ciel", "network": "TCL", "network:wikidata": "Q8700", "operator": "Keolis Lyon", "operator:wikidata": "Q61456136", "public_transport": "platform", "shelter": "no"}}, {"type": "node", "id": 11377507358, "lat": 45.7651713, "lon": 4.8844096, "tags": {"bench": "no", "bin": "no", "bus": "yes", "highway": "bus_stop", "lit": "yes", "name": "Rollet - 4 Ao\u00fbt", "network": "TCL", "network:wikidata": "Q8700", "operator": "Keolis Lyon", "operator:wikidata": "Q61456136", "public_transport": "platform", "shelter": "no", "tactile_paving": "no"}}, {"type": "node", "id": 11800062071, "lat": 45.7548935, "lon": 4.8794068, "tags": {"bus": "yes", "highway": "bus_stop", "name": "Cyrano", "public_transport": "platform"}}, {"type": "node", "id": 11801705746, "lat": 45.7593433, "lon": 4.8898143, "tags": {"bench": "yes", "bin": "yes", "bus": "yes", "departures_board": "realtime", "highway": "bus_stop", "lit": "yes", "name": "Grandcl\u00e9ment", "network": "TCL", "network:wikidata": "Q8700", "network:wikipedia": "fr:Transports en commun lyonnais", "operator": "Keolis Lyon", "operator:wikidata": "Q61456136", "pole": "yes", "public_transport": "platform", "route_ref": "C26A:R,C3A:R", "shelter": "yes", "tactile_paving": "no", "trolleybus": "yes"}}, {"type": "node", "id": 11801705747, "lat": 45.7592907, "lon": 4.8902022, "tags": {"bench": "yes", "bin": "yes", "bus": "yes", "departures_board": "realtime", "highway": "bus_stop", "lit": "yes", "name": "Grandcl\u00e9ment", "network": "TCL", "network:wikidata": "Q8700", "network:wikipedia": "fr:Transports en commun lyonnais", "operator": "Keolis Lyon", "operator:wikidata": "Q61456136", "pole": "yes", "public_transport": "platform", "route_ref": "C26A:R,C3A:R", "shelter": "yes", "tactile_paving": "no", "trolleybus": "yes"}}, {"type": "node", "id": 11831489264, "lat": 45.7690449, "lon": 4.8818066, "tags": {"bench": "yes", "bin": "yes", "bus": "yes", "highway": "bus_stop", "lit": "yes", "name": "Gratte-Ciel", "network": "TCL", "network:wikidata": "Q8700", "operator": "Keolis Lyon", "operator:wikidata": "Q61456136", "public_transport": "platform", "shelter": "yes", "tactile_paving": "no"}}, {"type": "node", "id": 11831489265, "lat": 45.7566609, "lon": 4.8763744, "tags": {"bench": "yes", "bin": "yes", "bus": "yes", "highway": "bus_stop", "lit": "yes", "name": "Maisons Neuves", "network": "TCL", "network:wikidata": "Q8700", "operator": "Keolis Lyon", "operator:wikidata": "Q61456136", "public_transport": "platform", "shelter": "yes", "tactile_paving": "no"}}, {"type": "node", "id": 11831535870, "lat": 45.7648134, "lon": 4.8813634, "tags": {"bench": "yes", "bin": "yes", "bus": "yes", "highway": "bus_stop", "name": "Verlaine - 4 Ao\u00fbt", "network": "TCL", "network:wikidata": "Q8700", "operator": "Keolis Lyon", "operator:wikidata": "Q61456136", "public_transport": "platform", "shelter": "yes"}}, {"type": "node", "id": 11831535871, "lat": 45.7587349, "lon": 4.8762703, "tags": {"bench": "yes", "bin": "yes", "bus": "yes", "highway": "bus_stop", "lit": "yes", "name": "Marengo", "network": "TCL", "network:wikidata": "Q8700", "operator": "Keolis Lyon", "operator:wikidata": "Q61456136", "public_transport": "platform", "shelter": "yes", "tactile_paving": "no"}}, {"type": "node", "id": 11833437265, "lat": 45.7613829, "lon": 4.9201132, "tags": {"bench": "yes", "bin": "yes", "bus": "yes", "highway": "bus_stop", "name": "Vaulx-en-Velin - La Soie", "network": "TCL", "network:wikidata": "Q8700", "operator": "Keolis Lyon", "operator:wikidata": "Q61456136", "public_transport": "platform", "shelter": "yes", "tactile_paving": "no"}}, {"type": "node", "id": 11843573756, "lat": 45.7529205, "lon": 4.8986653, "tags": {"bus": "yes", "highway": "bus_stop", "name": "Montchat Kimmerling", "network": "TCL", "network:wikidata": "Q8700", "operator": "Keolis Lyon", "operator:wikidata": "Q61456136", "public_transport": "platform"}}, {"type": "node", "id": 11847142307, "lat": 45.7844145, "lon": 4.8603141, "tags": {"bench": "yes", "bin": "yes", "bus": "yes", "highway": "bus_stop", "name": "Cit\u00e9 Internationnale - Transbordeur", "network": "TCL", "network:wikidata": "Q8700", "operator": "Keolis Lyon", "operator:wikidata": "Q61456136", "public_transport": "platform", "shelter": "yes", "trolleybus": "yes"}}, {"type": "node", "id": 11847142308, "lat": 45.7843894, "lon": 4.8599608, "tags": {"bench": "yes", "bin": "yes", "bus": "yes", "highway": "bus_stop", "lit": "yes", "name": "Cit\u00e9 Internationnale - Transbordeur", "network": "TCL", "network:wikidata": "Q8700", "operator": "Keolis Lyon", "operator:wikidata": "Q61456136", "public_transport": "platform", "shelter": "yes", "tactile_paving": "no", "trolleybus": "yes"}}, {"type": "node", "id": 11848046134, "lat": 45.7606456, "lon": 4.9061995, "tags": {"bus": "yes", "highway": "bus_stop", "name": "Bon Coin - M\u00e9dip\u00f4le", "network": "TCL", "network:wikidata": "Q8700", "operator": "Keolis Lyon", "operator:wikidata": "Q61456136", "public_transport": "platform"}}, {"type": "node", "id": 11966196610, "lat": 45.7816587, "lon": 4.876496, "tags": {"bench": "no", "bin": "no", "bus": "yes", "highway": "bus_stop", "lit": "no", "name": "La Doua - Jussieu", "network": "TCL", "network:wikidata": "Q8700", "operator": "Keolis Lyon", "operator:wikidata": "Q61456136", "public_transport": "platform", "shelter": "no"}}, {"type": "node", "id": 12290282255, "lat": 45.7793718, "lon": 4.8792597, "tags": {"bench": "no", "bin": "no", "bus": "yes", "highway": "bus_stop", "lit": "no", "name": "Antonins", "public_transport": "platform", "shelter": "no", "tactile_paving": "no"}}]}